{"pageProps":{"defaults":{"ym":"202408","stations":{"190 Morgan":{"name":"190 Morgan","lat":40.711071681,"lng":-73.9320957362,"starts":0},"2733.03":{"name":"67 St & Erik Pl","lat":40.633385,"lng":-74.016562,"starts":318},"2782.02":{"name":"5 Ave & 67 St","lat":40.635679,"lng":-74.020005,"starts":394},"2821.06":{"name":"62 St & 7 Ave","lat":40.635928,"lng":-74.013256,"starts":296},"2832.03":{"name":"4 Ave & Shore Road Dr","lat":40.637033,"lng":-74.022141,"starts":442},"2861.02":{"name":"57 St & 7 Ave","lat":40.638566,"lng":-74.010147,"starts":290},"2872.02":{"name":"63 St & 5 Ave","lat":40.63766,"lng":-74.01782,"starts":71},"2883.03":{"name":"3 Ave & Wakeman Pl","lat":40.638246,"lng":-74.024714,"starts":323},"2898.01":{"name":"Cortelyou Rd & Stratford Rd","lat":40.63966,"lng":-73.96807,"starts":1103},"2912.08":{"name":"6 Ave & 60 St","lat":40.638196,"lng":-74.013821,"starts":292},"2923.01":{"name":"62 St & 4 Ave","lat":40.639859,"lng":-74.019776,"starts":191},"2932.03":{"name":"Wakeman Pl & Ridge Blvd","lat":40.639421,"lng":-74.026823,"starts":468},"2951.05":{"name":"55 St & 7 Ave","lat":40.639673,"lng":-74.008957,"starts":299},"2961.05":{"name":"59 St & 5 Ave","lat":40.640125,"lng":-74.015726,"starts":171},"2971.02":{"name":"64 St & 3 Ave","lat":40.639978,"lng":-74.02324,"starts":38},"2984.04":{"name":"Cortelyou Rd & Argyle Rd","lat":40.64034,"lng":-73.96603,"starts":770},"3000.08":{"name":"6 Ave & 55 St","lat":40.640831,"lng":-74.010996,"starts":187},"3007.05":{"name":"Church Ave & Story St","lat":40.642031,"lng":-73.981073,"starts":328},"3011.03":{"name":"59 St & 4 Ave","lat":40.641269,"lng":-74.017651,"starts":563},"3019.02":{"name":"65 St & 2 Ave","lat":40.640493,"lng":-74.02564,"starts":54},"3019.03":{"name":"Keegan Rd & 2 Ave","lat":40.6424313971,"lng":-74.0255355835,"starts":106},"3022.01":{"name":"Cortelyou Rd & E 19 St","lat":40.64269,"lng":-73.96099,"starts":688},"3034.02":{"name":"Matthews Ct & Coney Island Ave","lat":40.64235,"lng":-73.96951,"starts":297},"3038.08":{"name":"50 St & 7 Ave","lat":40.642501,"lng":-74.006055,"starts":513},"3046.03":{"name":"E 3 St & Church Ave","lat":40.643817,"lng":-73.977433,"starts":432},"3050.03":{"name":"55 St & 5 Ave","lat":40.642408,"lng":-74.013318,"starts":282},"3056.05":{"name":"12 Ave & 36 St","lat":40.643546,"lng":-73.986418,"starts":466},"3070.04":{"name":"E 16 St & Cortelyou Rd","lat":40.64173,"lng":-73.96364,"starts":811},"3084.05":{"name":"52 St & 6 Ave","lat":40.642703,"lng":-74.009441,"starts":129},"3087.01":{"name":"Cortelyou Rd & E 34 St","lat":40.64454,"lng":-73.94486,"starts":286},"3090.06":{"name":"Church Ave & McDonald Ave","lat":40.642809,"lng":-73.979239,"starts":624},"3093.07":{"name":"57 St & 4 Ave","lat":40.642622,"lng":-74.016866,"starts":363},"3113.06":{"name":"Rugby Rd & Beverley Rd","lat":40.64435,"lng":-73.96591,"starts":407},"3113.1":{"name":"Stratford Rd & Beverley Rd","lat":40.64378,"lng":-73.96867,"starts":38},"3113.10":{"name":"Stratford Rd & Beverley Rd","lat":40.64378,"lng":-73.96867,"starts":240},"3117.05":{"name":"46 St & 7 Ave","lat":40.644743,"lng":-74.003754,"starts":689},"3121.01":{"name":"Cortelyou Rd & Albany Ave","lat":40.64483,"lng":-73.93853,"starts":157},"3125.09":{"name":"Ocean Pkwy & Church Ave","lat":40.6447189576,"lng":-73.9745146036,"starts":950},"3129.08":{"name":"53 St & 5 Ave","lat":40.643371,"lng":-74.011884,"starts":446},"3132.09":{"name":"Beverley Rd & Nostrand Ave","lat":40.64507,"lng":-73.9488,"starts":177},"3135.04":{"name":"Chester Ave & 12 Ave","lat":40.644367,"lng":-73.984276,"starts":270},"3138.09":{"name":"58 St & 2 Ave","lat":40.644512,"lng":-74.021506,"starts":339},"3140.09":{"name":"Bedford Ave & Beverley Rd","lat":40.64491,"lng":-73.95487,"starts":586},"3148.08":{"name":"E 17 St & Beverley Rd","lat":40.64466,"lng":-73.96322,"starts":588},"3148.09":{"name":"E 19 St & Beverley Rd","lat":40.64483,"lng":-73.9613,"starts":294},"3155.01":{"name":"Schenectady Ave & Cortelyou Rd","lat":40.64535,"lng":-73.93268,"starts":136},"3157.08":{"name":"Turner Pl & Coney Island Ave","lat":40.64521,"lng":-73.97073,"starts":480},"3161.02":{"name":"46 St & 6 Ave","lat":40.645921,"lng":-74.005708,"starts":593},"3164.04":{"name":"Brooklyn Ave & Beverley Rd","lat":40.64575,"lng":-73.94331,"starts":28},"3166.03":{"name":"Albemarle Rd & McDonald Ave","lat":40.645074,"lng":-73.979681,"starts":599},"3169.07":{"name":"53 St & 4 Ave","lat":40.644862,"lng":-74.014531,"starts":207},"3172.01":{"name":"Tilden Ave & Nostrand Ave","lat":40.64683,"lng":-73.94933,"starts":387},"3178.02":{"name":"57 St & 1 Ave","lat":40.646377,"lng":-74.023087,"starts":200},"3180.02":{"name":"Beverley Rd & Flatbush Ave","lat":40.64499,"lng":-73.95818,"starts":821},"3180.09":{"name":"Albemarle Rd & E 21 St","lat":40.64741,"lng":-73.95933,"starts":600},"3187.01":{"name":"Beverley Rd & E 49 St","lat":40.64621,"lng":-73.93067,"starts":168},"3188.04":{"name":"Rugby Rd & Albemarle Rd","lat":40.64672,"lng":-73.96637,"starts":450},"3192.05":{"name":"7 Ave & 41 St","lat":40.647379,"lng":-74.000911,"starts":1132},"3199.01":{"name":"Caton Ave & E 7 St","lat":40.647718,"lng":-73.973663,"starts":634},"3202.06":{"name":"48 St & 5 Ave","lat":40.646351,"lng":-74.009271,"starts":650},"3205.06":{"name":"Brooklyn Ave & Tilden Ave","lat":40.64725,"lng":-73.94352,"starts":114},"3208.07":{"name":"Dahill Rd & 12 Ave","lat":40.646037,"lng":-73.980963,"starts":374},"3211.06":{"name":"53 St & 2 Ave","lat":40.64744,"lng":-74.018846,"starts":489},"3214.04":{"name":"Tilden Ave & Lott St","lat":40.64661,"lng":-73.95401,"starts":232},"3220.01":{"name":"58 St & Pier 4","lat":40.646475,"lng":-74.026081,"starts":491},"3223.07":{"name":"Ocean Ave & Tennis Ct","lat":40.64873,"lng":-73.96084,"starts":566},"3229.07":{"name":"E 48 St & Tilden Ave","lat":40.64795,"lng":-73.93182,"starts":79},"3230.01":{"name":"Caton Ave & E 10 St","lat":40.648481,"lng":-73.97058,"starts":111},"3233.02":{"name":"5 Ave & 44 St","lat":40.64865,"lng":-74.00646,"starts":230},"3240.15":{"name":"Fort Hamilton Pkwy & E 5 St","lat":40.649037,"lng":-73.97673,"starts":859},"3243.02":{"name":"47 St & 3 Ave","lat":40.649143,"lng":-74.012384,"starts":181},"3246.06":{"name":"New York Ave & Snyder Ave","lat":40.64868,"lng":-73.94635,"starts":211},"3253.01":{"name":"52 St & 1 Ave","lat":40.649292,"lng":-74.020105,"starts":267},"3256.04":{"name":"Bedford Ave & Albemarle Rd","lat":40.64796,"lng":-73.9556,"starts":362},"3263.01":{"name":"E 18 St & Church Ave","lat":40.64958,"lng":-73.96316,"starts":799},"3266.01":{"name":"7 Ave & 40 St","lat":40.648169,"lng":-74.000057,"starts":660},"3272.01":{"name":"E 8 St & Caton Ave","lat":40.648055,"lng":-73.972432,"starts":730},"3275.03":{"name":"45 St & 4 Ave","lat":40.649145,"lng":-74.009486,"starts":779},"3278.07":{"name":"Brooklyn Ave & Snyder Ave","lat":40.64915,"lng":-73.94368,"starts":65},"3280.04":{"name":"Fort Hamilton Pkwy & E 2 St","lat":40.648005,"lng":-73.979342,"starts":623},"3283.05":{"name":"48 St & 2 Ave","lat":40.650176,"lng":-74.015606,"starts":90},"3286.07":{"name":"Rogers Ave & Snyder Ave","lat":40.64871,"lng":-73.95218,"starts":300},"3294.03":{"name":"E 21 St & Church Ave","lat":40.65007,"lng":-73.96001,"starts":720},"3300.04":{"name":"E 49 St & Church Ave","lat":40.65182,"lng":-73.93135,"starts":147},"3300.06":{"name":"Snyder Ave & Schenectady Ave","lat":40.65,"lng":-73.93296,"starts":100},"3303.03":{"name":"Caton Ave & Argyle Rd","lat":40.649681,"lng":-73.967829,"starts":170},"3306.03":{"name":"5 Ave & 41 St","lat":40.649983,"lng":-74.005144,"starts":1119},"3309.04":{"name":"Church Ave & E 42 St","lat":40.65127,"lng":-73.93818,"starts":112},"3312.07":{"name":"Prospect Ave & Greenwood Ave","lat":40.651745,"lng":-73.975988,"starts":578},"3315.05":{"name":"44 St & 3 Ave","lat":40.651173,"lng":-74.011405,"starts":194},"3318.05":{"name":"E 34 St & Church Ave","lat":40.65116,"lng":-73.94577,"starts":215},"3327.01":{"name":"Lott St & Erasmus St","lat":40.64949,"lng":-73.95408,"starts":286},"3335.09":{"name":"Caton Ave & St. Pauls Pl","lat":40.65153,"lng":-73.96277,"starts":634},"3341.06":{"name":"Church Ave & E 45 St","lat":40.65159,"lng":-73.93535,"starts":86},"3344.02":{"name":"Park Circle & East Dr","lat":40.651566,"lng":-73.972212,"starts":3148},"3347.03":{"name":"41 St & 4 Ave","lat":40.651354,"lng":-74.007168,"starts":557},"3350.04":{"name":"E 38 St & Church Ave","lat":40.65106,"lng":-73.94193,"starts":101},"3353.04":{"name":"Greenwood Ave & E 4 St","lat":40.650739,"lng":-73.977739,"starts":621},"3356.05":{"name":"44 St & 2 Ave","lat":40.652502,"lng":-74.013587,"starts":136},"3359.01":{"name":"Church Ave & Nostrand Ave","lat":40.65074,"lng":-73.94986,"starts":644},"3359.03":{"name":"Linden Blvd & Nostrand Ave","lat":40.65272,"lng":-73.94994,"starts":390},"3368.04":{"name":"Caton Ave & Bedford Ave","lat":40.65237,"lng":-73.95623,"starts":1341},"3373.01":{"name":"E 51 St & Linden Blvd","lat":40.65399,"lng":-73.92967,"starts":218},"3376.02":{"name":"Parade Pl & Crooke Ave","lat":40.651847,"lng":-73.965248,"starts":1181},"3376.04":{"name":"Parkside Ave & Parade Pl","lat":40.6532,"lng":-73.96639,"starts":1119},"3379.03":{"name":"5 Ave & 37 St","lat":40.652657,"lng":-74.002356,"starts":420},"3382.04":{"name":"Troy Ave & Linden Blvd","lat":40.6533,"lng":-73.93644,"starts":156},"3385.06":{"name":"Prospect Park SW & Greenwood Ave","lat":40.652563,"lng":-73.972573,"starts":1213},"3388.02":{"name":"41 St & 3 Ave","lat":40.652512,"lng":-74.008906,"starts":90},"3388.03":{"name":"40 St & 3 Ave","lat":40.6535,"lng":-74.00902,"starts":199},"3391.1":{"name":"E 34 St & Linden Blvd","lat":40.65302,"lng":-73.94599,"starts":12},"3391.10":{"name":"E 34 St & Linden Blvd","lat":40.65302,"lng":-73.94599,"starts":124},"3394.03":{"name":"McDonald Ave & Vanderbilt St","lat":40.651654,"lng":-73.981231,"starts":448},"3400.04":{"name":"Rogers Ave & Lenox Rd","lat":40.65378,"lng":-73.95273,"starts":799},"3408.05":{"name":"Ocean Ave & Crooke Ave","lat":40.65326,"lng":-73.96172,"starts":1057},"3420.01":{"name":"36 St & 4 Ave","lat":40.654144,"lng":-74.00422,"starts":1611},"3423.1":{"name":"Clarkson Ave & E 40 St","lat":40.65592,"lng":-73.94068,"starts":26},"3423.10":{"name":"Clarkson Ave & E 40 St","lat":40.65592,"lng":-73.94068,"starts":184},"3426.02":{"name":"Prospect Ave & Vanderbilt St","lat":40.653368,"lng":-73.976291,"starts":600},"3428.02":{"name":"42 St & 1 Ave","lat":40.654798,"lng":-74.014372,"starts":112},"3431.02":{"name":"New York Ave & Lenox Rd","lat":40.65458,"lng":-73.94716,"starts":756},"3439.03":{"name":"Bedford Ave & Clarkson Ave","lat":40.65519,"lng":-73.9564,"starts":1060},"3448.02":{"name":"Parkside Ave & Ocean Ave","lat":40.65485,"lng":-73.96217,"starts":3622},"3451.01":{"name":"34 St & 5 Ave","lat":40.654098,"lng":-74.001131,"starts":266},"3454.01":{"name":"Clarkson Ave & Troy Ave","lat":40.65633,"lng":-73.93648,"starts":99},"3457.03":{"name":"Prospect Park SW & Vanderbilt St","lat":40.65482,"lng":-73.973217,"starts":1508},"3460.01":{"name":"2 Ave & 36 St","lat":40.6570886667,"lng":-74.0087020397,"starts":467},"3460.02":{"name":"36 St & 3 Ave","lat":40.655716,"lng":-74.006664,"starts":1234},"3460.06":{"name":"2 Ave & 37 St","lat":40.65624,"lng":-74.00933,"starts":414},"3463.01":{"name":"Clarkson Ave & E 37 St","lat":40.65577,"lng":-73.9432,"starts":557},"3472.03":{"name":"Clarkson Ave & Nostrand Ave","lat":40.6555,"lng":-73.94975,"starts":719},"3480.04":{"name":"Parkside Ave & Flatbush Ave","lat":40.65563,"lng":-73.95968,"starts":1044},"3486.02":{"name":"Clarkson Ave & Utica Ave","lat":40.65666,"lng":-73.93109,"starts":171},"3492.04":{"name":"34 St & 4 Ave","lat":40.655278,"lng":-74.003101,"starts":711},"3495.08":{"name":"Lenox Rd & E 43 St","lat":40.65496,"lng":-73.93765,"starts":142},"3498.09":{"name":"Prospect Park SW & 16 St","lat":40.657265,"lng":-73.974165,"starts":1731},"3504.02":{"name":"New York Ave & Hawthorne St","lat":40.65794,"lng":-73.94735,"starts":434},"3507.04":{"name":"Prospect Park W & 20 St","lat":40.656633,"lng":-73.983864,"starts":641},"3512.03":{"name":"Winthrop St & Rogers Ave","lat":40.65686,"lng":-73.95331,"starts":651},"3515.01":{"name":"7 Ave & 22 St","lat":40.658029,"lng":-73.989605,"starts":516},"3520.01":{"name":"Flatbush Ave & Fenimore St","lat":40.65798,"lng":-73.96051,"starts":964},"3523.06":{"name":"29 St & 5 Ave","lat":40.656986,"lng":-73.998194,"starts":412},"3526.04":{"name":"Winthrop St & Schenectady Ave","lat":40.6582,"lng":-73.9338,"starts":84},"3532.02":{"name":"2 Ave & 32 St","lat":40.659176,"lng":-74.006584,"starts":139},"3535.03":{"name":"Winthrop St & Albany Ave","lat":40.6577,"lng":-73.9398,"starts":277},"3538.09":{"name":"11 Ave & Prospect Ave","lat":40.65629,"lng":-73.977335,"starts":1388},"3544.02":{"name":"Winthrop St & Nostrand Ave","lat":40.65707,"lng":-73.95005,"starts":504},"3547.04":{"name":"19 St & 8 Ave","lat":40.658489,"lng":-73.985543,"starts":366},"3552.09":{"name":"Bedford Ave & Fenimore St","lat":40.65815,"lng":-73.95674,"starts":753},"3555.04":{"name":"24 St & 5 Ave","lat":40.659555,"lng":-73.995068,"starts":1016},"3564.04":{"name":"30 St & 4 Ave","lat":40.657743,"lng":-74.001141,"starts":647},"3567.05":{"name":"Rutland Rd & E 45 St","lat":40.66034,"lng":-73.93618,"starts":188},"3576.1":{"name":"Rutland Rd & Brooklyn Ave","lat":40.65969,"lng":-73.94517,"starts":414},"3579.04":{"name":"Windsor Pl & Howard Pl","lat":40.6594905589,"lng":-73.9801391959,"starts":2322},"3585.06":{"name":"Nostrand Ave & Rutland Rd","lat":40.6595,"lng":-73.95041,"starts":765},"3588.01":{"name":"7 Ave & 20 St","lat":40.659053,"lng":-73.98854,"starts":919},"3593.01":{"name":"Maple St & Flatbush Ave","lat":40.66026,"lng":-73.96045,"starts":1184},"3593.1":{"name":"Flatbush Ave & Lincoln Rd","lat":40.66131,"lng":-73.96091,"starts":1761},"3596.04":{"name":"4 Ave & 26 St","lat":40.660079,"lng":-73.998633,"starts":719},"3599.01":{"name":"Midwood St & Utica Ave","lat":40.66124,"lng":-73.93164,"starts":160},"3608.06":{"name":"Maple St & Albany Ave","lat":40.66155,"lng":-73.93974,"starts":354},"3611.02":{"name":"Prospect Park SW & 10 Ave","lat":40.659945,"lng":-73.977504,"starts":1732},"3617.02":{"name":"Maple St & New York Ave","lat":40.66104,"lng":-73.94795,"starts":723},"3620.02":{"name":"Windsor Pl & 8 Ave","lat":40.660906,"lng":-73.983074,"starts":1101},"3625.04":{"name":"Bedford Ave & Maple St","lat":40.66035,"lng":-73.95679,"starts":603},"3625.07":{"name":"Rogers Ave & Lincoln Rd","lat":40.66127,"lng":-73.95352,"starts":1244},"3628.11":{"name":"6 Ave & 21 St","lat":40.66016,"lng":-73.990974,"starts":2072},"3633.08":{"name":"Lincoln Rd & Ocean Ave","lat":40.6605,"lng":-73.9626,"starts":3291},"3639.04":{"name":"Schenectady Ave & Maple St","lat":40.66178,"lng":-73.93445,"starts":248},"3648.08":{"name":"Kingston Ave & E New York Ave","lat":40.66219,"lng":-73.94293,"starts":900},"3651.04":{"name":"West Drive & Prospect Park West","lat":40.6610633719,"lng":-73.9794525504,"starts":6453},"3657.06":{"name":"Sterling St & Nostrand Ave","lat":40.66318,"lng":-73.95076,"starts":1536},"3660.07":{"name":"7 Ave & 17 St","lat":40.6609377949,"lng":-73.9868044853,"starts":1050},"3665.06":{"name":"Sterling St & Bedford Ave","lat":40.6627059,"lng":-73.9569115,"starts":714},"3668.04":{"name":"21 St & 4 Ave","lat":40.662584,"lng":-73.995554,"starts":1285},"3680.04":{"name":"E New York Ave & Troy Ave","lat":40.66227,"lng":-73.93762,"starts":295},"3688.06":{"name":"Brooklyn Ave & Lefferts Ave","lat":40.662564,"lng":-73.945565,"starts":622},"3696.05":{"name":"Rogers Ave & Sterling St","lat":40.6630619,"lng":-73.9538746,"starts":962},"3699.07":{"name":"17 St & 5 Ave","lat":40.663493,"lng":-73.991007,"starts":1872},"3704.01":{"name":"Washington Ave & Empire Blvd","lat":40.66314,"lng":-73.9605695,"starts":1165},"3704.04":{"name":"Flatbush Ave & Ocean Ave","lat":40.663657,"lng":-73.963014,"starts":2419},"3707.01":{"name":"23 St & 3 Ave","lat":40.662611,"lng":-73.998623,"starts":207},"3710.07":{"name":"Lefferts Ave & Schenectady Ave","lat":40.66343,"lng":-73.93472,"starts":791},"3719.02":{"name":"Lefferts Ave & Albany Ave","lat":40.66288,"lng":-73.94019,"starts":570},"3722.04":{"name":"Prospect Park West & 8 St","lat":40.6651468153,"lng":-73.9763760567,"starts":3853},"3728.04":{"name":"Empire Blvd & New York Ave","lat":40.66403,"lng":-73.94769,"starts":387},"3728.05":{"name":"New York Ave & Montgomery St","lat":40.66509,"lng":-73.94824,"starts":539},"3731.11":{"name":"14 St & 7 Ave","lat":40.663779,"lng":-73.98396846,"starts":3010},"3736.03":{"name":"Bedford Ave & Montgomery St","lat":40.665816,"lng":-73.956934,"starts":772},"3739.06":{"name":"4 Ave & 17 St","lat":40.665507,"lng":-73.993037,"starts":951},"3742.11":{"name":"Carroll St & Rochester Ave","lat":40.66598,"lng":-73.9284,"starts":605},"3751.05":{"name":"Crown St & Troy Ave","lat":40.66559,"lng":-73.93712,"starts":612},"3759.07":{"name":"Kingston Ave & Montgomery St","lat":40.66481,"lng":-73.94269,"starts":1002},"3762.08":{"name":"10 St & 7 Ave","lat":40.6662078,"lng":-73.98199886,"starts":3634},"3768.02":{"name":"Crown St & Rogers Ave","lat":40.66639,"lng":-73.95346,"starts":985},"3771.06":{"name":"14 St & 5 Ave","lat":40.666287,"lng":-73.98895053,"starts":3062},"3776.05":{"name":"Montgomery St & Franklin Ave","lat":40.6664393069,"lng":-73.9605563879,"starts":1101},"3776.1":{"name":"McKeever Pl & Sullivan Pl","lat":40.6643233158,"lng":-73.9592179149,"starts":68},"3776.10":{"name":"McKeever Pl & Sullivan Pl","lat":40.6643233158,"lng":-73.9592179149,"starts":431},"3779.02":{"name":"3 Ave & 17 St","lat":40.666168,"lng":-73.995549,"starts":178},"3782.03":{"name":"Carroll St & Utica Ave","lat":40.66619,"lng":-73.93162,"starts":425},"3791.02":{"name":"Albany Ave & Carroll St","lat":40.6667,"lng":-73.93972,"starts":771},"3803.05":{"name":"6 Ave & 12 St","lat":40.6663181,"lng":-73.9854617,"starts":2059},"3803.09":{"name":"6 Ave & 9 St","lat":40.668127,"lng":-73.98377641,"starts":3816},"3811.05":{"name":"16 St & 4 Ave","lat":40.666197,"lng":-73.992466,"starts":1103},"3814.01":{"name":"Buffalo Ave & E New York Ave","lat":40.66591,"lng":-73.92602,"starts":594},"3822.08":{"name":"Schenectady Ave & President St","lat":40.66732,"lng":-73.93398,"starts":674},"3831.03":{"name":"Kingston Ave & Carroll St","lat":40.66688,"lng":-73.9425,"starts":1205},"3834.1":{"name":"6 St & 7 Ave","lat":40.6686627,"lng":-73.97988067,"starts":362},"3834.10":{"name":"6 St & 7 Ave","lat":40.6686627,"lng":-73.97988067,"starts":2746},"3839.02":{"name":"President St & Nostrand Ave","lat":40.66811,"lng":-73.9505,"starts":1251},"3842.08":{"name":"10 St & 5 Ave","lat":40.6686273,"lng":-73.98700053,"starts":2027},"3845.05":{"name":"Eastern Pkwy & Ralph Ave","lat":40.66852,"lng":-73.92284,"starts":225},"3847.04":{"name":"Carroll St & Franklin Ave","lat":40.6679411,"lng":-73.9588,"starts":950},"3850.03":{"name":"3 Ave & 14 St","lat":40.6685455,"lng":-73.99333264,"starts":1000},"3853.02":{"name":"Eastern Pkwy & Rochester Ave","lat":40.66846,"lng":-73.9282,"starts":877},"3856.03":{"name":"Flatbush Ave & Eastern Pkwy","lat":40.668757,"lng":-73.966438,"starts":606},"3862.07":{"name":"Eastern Pkwy & Troy Ave","lat":40.66929,"lng":-73.93679,"starts":797},"3865.05":{"name":"3 St & Prospect Park West","lat":40.668132,"lng":-73.97363831,"starts":4617},"3871.02":{"name":"Eastern Pkwy & Brooklyn Ave","lat":40.66939,"lng":-73.94514,"starts":820},"3874.01":{"name":"5 St & 6 Ave","lat":40.6704836,"lng":-73.98208968,"starts":1596},"3877.04":{"name":"Pitkin Ave & Grafton St","lat":40.66852,"lng":-73.91908,"starts":294},"3879.04":{"name":"Union St & Bedford Ave","lat":40.6691783,"lng":-73.9554162,"starts":2024},"3882.01":{"name":"12 St & 4 Ave","lat":40.668603,"lng":-73.9904394,"starts":1198},"3882.05":{"name":"10 St & 4 Ave","lat":40.6696735637,"lng":-73.9889890818,"starts":2256},"3885.06":{"name":"Buffalo Ave & St John's Pl","lat":40.67015,"lng":-73.92538,"starts":316},"3887.03":{"name":"Carroll St & Washington Ave","lat":40.6686744,"lng":-73.9618148,"starts":942},"3893.03":{"name":"Eastern Pkwy & Schenectady Ave","lat":40.66876,"lng":-73.93376,"starts":1029},"3902.06":{"name":"Eastern Pkwy & Kingston Ave","lat":40.66959,"lng":-73.94237,"starts":2818},"3905.15":{"name":"3 St & 7 Ave","lat":40.6703837,"lng":-73.97839676,"starts":3620},"3911.05":{"name":"Eastern Pkwy & Nostrand Ave","lat":40.66967,"lng":-73.9503,"starts":1295},"3914.02":{"name":"7 St & 5 Ave","lat":40.6704922,"lng":-73.98541675,"starts":2390},"3917.03":{"name":"St Johns Pl & Howard Ave","lat":40.66992,"lng":-73.92002,"starts":246},"3919.07":{"name":"Eastern Pkwy & Franklin Ave (NE Corner)","lat":40.6707767,"lng":-73.9576801,"starts":3701},"3919.12":{"name":"Eastern Pkwy & Franklin Ave (SW Corner)","lat":40.670529,"lng":-73.958222,"starts":1526},"3922.02":{"name":"10 St & 2 Ave","lat":40.671907,"lng":-73.993612,"starts":1440},"3925.03":{"name":"Sterling Pl & Rochester Ave","lat":40.67128,"lng":-73.92825,"starts":262},"3928.08":{"name":"Eastern Pkwy & Washington Ave","lat":40.6716493,"lng":-73.9631145,"starts":2771},"3931.09":{"name":"Bay St & Court St","lat":40.671409,"lng":-74.001328,"starts":431},"3934.06":{"name":"Sterling Pl & Schenectady Ave","lat":40.6716,"lng":-73.93378,"starts":560},"3934.07":{"name":"Troy Ave & Park Pl","lat":40.67251,"lng":-73.93642,"starts":612},"3940.04":{"name":"Sigourney St & Columbia St","lat":40.6726724341,"lng":-74.0087952465,"starts":710},"3943.03":{"name":"St Johns Pl & Kingston Ave","lat":40.67113,"lng":-73.94222,"starts":1135},"3946.07":{"name":"1 St & 6 Ave","lat":40.672784,"lng":-73.979826,"starts":1795},"3950.03":{"name":"Park Pl & Thomas S. Boyland St","lat":40.67154,"lng":-73.91433,"starts":393},"3952.07":{"name":"Lincoln Pl & Nostrand Ave","lat":40.67077,"lng":-73.9507,"starts":1634},"3958.02":{"name":"Sterling Pl & Ralph Ave","lat":40.67095,"lng":-73.92222,"starts":244},"3960.01":{"name":"Lincoln Pl & Classon Ave","lat":40.6721683,"lng":-73.9609,"starts":2021},"3966.01":{"name":"St Johns Pl & Utica Ave","lat":40.6705,"lng":-73.9308,"starts":725},"3966.03":{"name":"Park Pl & Utica Ave","lat":40.67242,"lng":-73.93094,"starts":415},"3972.08":{"name":"Henry St & Bay St","lat":40.6725058,"lng":-74.00494695,"starts":633},"3975.02":{"name":"Albany Ave & Park Pl","lat":40.67297,"lng":-73.93896,"starts":599},"3978.13":{"name":"Garfield Pl & 8 Ave","lat":40.6711978,"lng":-73.97484126,"starts":2837},"3981.1":{"name":"Dwight St & Van Dyke St","lat":40.6736355134,"lng":-74.0119555593,"starts":36},"3981.10":{"name":"Dwight St & Van Dyke St","lat":40.6736355134,"lng":-74.0119555593,"starts":365},"3982.01":{"name":"Eastern Pkwy\\t& St Marks Ave","lat":40.67319,"lng":-73.91083,"starts":207},"3984.02":{"name":"Sterling Pl & New York Ave","lat":40.67234,"lng":-73.94763,"starts":1540},"3987.06":{"name":"5 Ave & 3 St","lat":40.6728155,"lng":-73.98352355,"starts":3605},"3991.04":{"name":"Prospect Pl & Howard Ave","lat":40.67261,"lng":-73.91977,"starts":238},"3993.03":{"name":"Sterling Pl & Bedford Ave","lat":40.672695,"lng":-73.954131,"starts":2412},"3996.01":{"name":"7 St & 3 Ave","lat":40.6726029815,"lng":-73.9898300171,"starts":1978},"3999.06":{"name":"Park Pl & Buffalo Ave","lat":40.67202,"lng":-73.92539,"starts":325},"4001.09":{"name":"St Johns Pl & Washington Ave","lat":40.6737236,"lng":-73.9631611,"starts":2911},"4007.01":{"name":"Schenectady Ave & Prospect Pl","lat":40.67351,"lng":-73.93363,"starts":783},"4010.01":{"name":"Plaza St East & Flatbush Ave","lat":40.673134,"lng":-73.969106,"starts":5638},"4010.13":{"name":"Plaza St West & Flatbush Ave","lat":40.6750206855,"lng":-73.9711147514,"starts":3865},"4010.15":{"name":"Grand Army Plaza & Plaza St West","lat":40.6729679,"lng":-73.97087984,"starts":4440},"4013.08":{"name":"Columbia St & Lorraine St","lat":40.6747055,"lng":-74.0075572,"starts":296},"4014.01":{"name":"Pacific St & Sackman St","lat":40.67522,"lng":-73.9061,"starts":149},"4016.03":{"name":"Kingston Ave & Park Pl","lat":40.67308,"lng":-73.94191,"starts":1175},"4019.06":{"name":"Carroll St & 6 Ave","lat":40.6740886,"lng":-73.9787282,"starts":2369},"4023.01":{"name":"St Marks Ave & Thomas S. Boyland St","lat":40.67313,"lng":-73.91387,"starts":109},"4023.05":{"name":"Pacific St & Thomas S. Boyland St","lat":40.67568,"lng":-73.91396,"starts":269},"4025.02":{"name":"Prospect Pl & Nostrand Ave","lat":40.67428,"lng":-73.9503,"starts":2030},"4028.03":{"name":"3 St & 3 Ave","lat":40.6750705,"lng":-73.98775226,"starts":1824},"4028.04":{"name":"4 Ave & 3 St","lat":40.673746,"lng":-73.985649,"starts":2399},"4031.05":{"name":"St Marks Ave & Ralph Ave","lat":40.67372,"lng":-73.92199,"starts":327},"4033.16":{"name":"Sterling Pl & Franklin Ave","lat":40.67324785,"lng":-73.95689517,"starts":3329},"4033.18":{"name":"Sterling Pl & Classon Ave","lat":40.6739411,"lng":-73.96026,"starts":1686},"4039.04":{"name":"St Marks Ave & Rochester Ave","lat":40.67404,"lng":-73.92772,"starts":312},"4042.08":{"name":"Underhill Ave & Lincoln Pl","lat":40.6740123,"lng":-73.9671457,"starts":2945},"4045.01":{"name":"Clinton St & Centre St","lat":40.67434,"lng":-74.00194698,"starts":617},"4048.03":{"name":"Bergen St & Troy Ave","lat":40.67524,"lng":-73.93596,"starts":465},"4051.01":{"name":"Berkeley Pl & 7 Ave","lat":40.6751468387,"lng":-73.9752320945,"starts":5182},"4054.06":{"name":"Dwight St & Dikeman St","lat":40.6748750386,"lng":-74.0104801857,"starts":265},"4055.04":{"name":"Bergen St & Mother Gaston Blvd","lat":40.67374,"lng":-73.90852,"starts":261},"4057.04":{"name":"Brooklyn Ave & Prospect Pl","lat":40.67412,"lng":-73.94447,"starts":1516},"4060.09":{"name":"Carroll St & 5 Ave","lat":40.6751622,"lng":-73.9814832,"starts":2999},"4064.03":{"name":"Bergen St & Saratoga Ave","lat":40.67423,"lng":-73.91656,"starts":338},"4066.15":{"name":"Bedford Ave & Bergen St","lat":40.676368,"lng":-73.952918,"starts":2480},"4072.02":{"name":"Bergen St & Buffalo Ave","lat":40.6747,"lng":-73.92512,"starts":265},"4074.14":{"name":"Classon Ave & St Marks Ave","lat":40.676513,"lng":-73.959431,"starts":2892},"4077.04":{"name":"Smith St & 9 St","lat":40.6746957,"lng":-73.99785768,"starts":1871},"4077.07":{"name":"Court St & Nelson St","lat":40.6763947,"lng":-73.99869893,"starts":2135},"4080.01":{"name":"Schenectady Ave & Pacific St","lat":40.67686,"lng":-73.93327,"starts":537},"4086.05":{"name":"Columbia St & W 9 St","lat":40.6769993,"lng":-74.00647134,"starts":302},"4086.06":{"name":"Henry St & W 9 St","lat":40.6763744,"lng":-74.00324957,"starts":337},"4087.01":{"name":"Van Sinderen Ave & Atlantic Ave","lat":40.67621,"lng":-73.90351,"starts":303},"4089.01":{"name":"Bergen St & Kingston Ave","lat":40.6756,"lng":-73.9415,"starts":1239},"4095.03":{"name":"Van Brunt St & Wolcott St","lat":40.6773429,"lng":-74.01275056,"starts":1605},"4095.1":{"name":"Van Brunt St & Van Dyke St","lat":40.6758329439,"lng":-74.0147262812,"starts":202},"4095.10":{"name":"Van Brunt St & Van Dyke St","lat":40.6758329439,"lng":-74.0147262812,"starts":1627},"4096.08":{"name":"Dean St & Rockaway Ave","lat":40.67486,"lng":-73.91123,"starts":172},"4098.06":{"name":"New York Ave & St Marks Ave","lat":40.67514,"lng":-73.94716,"starts":1629},"4101.17":{"name":"President St & 4 Ave","lat":40.676757,"lng":-73.983262,"starts":2738},"4105.01":{"name":"Pacific St & Ralph Ave","lat":40.67607,"lng":-73.92171,"starts":343},"4107.05":{"name":"Franklin Ave & St Marks Ave","lat":40.6758324,"lng":-73.9561677,"starts":2989},"4107.13":{"name":"Dean St & Franklin Ave","lat":40.6775920694,"lng":-73.9556372166,"starts":3497},"4110.1":{"name":"3 St & Hoyt St","lat":40.6777287,"lng":-73.99364123,"starts":71},"4110.10":{"name":"3 St & Hoyt St","lat":40.6777287,"lng":-73.99364123,"starts":1061},"4113.01":{"name":"Pacific St & Rochester Ave","lat":40.67639,"lng":-73.92748,"starts":312},"4116.08":{"name":"Prospect Pl & Underhill Ave","lat":40.6769694,"lng":-73.96579,"starts":1980},"4116.09":{"name":"Washington Ave & Park Pl","lat":40.675832,"lng":-73.963308,"starts":2831},"4119.04":{"name":"Clinton St & 4 Place","lat":40.6783563,"lng":-74.00014502,"starts":1739},"4120.02":{"name":"Fulton St & Williams Ave","lat":40.67709,"lng":-73.9008,"starts":324},"4122.03":{"name":"Pacific St & Troy Ave","lat":40.67686,"lng":-73.93607,"starts":726},"4125.07":{"name":"7 Ave & Park Pl","lat":40.6776147,"lng":-73.97324283,"starts":5450},"4128.08":{"name":"Pioneer St & Richards St","lat":40.6777748,"lng":-74.0094613,"starts":522},"4129.1":{"name":"Herkimer St & Eastern Pkwy","lat":40.67738,"lng":-73.90829,"starts":14},"4129.10":{"name":"Herkimer St & Eastern Pkwy","lat":40.67738,"lng":-73.90829,"starts":168},"4131.03":{"name":"Brooklyn Ave & Dean St","lat":40.67669,"lng":-73.94437,"starts":1616},"4134.06":{"name":"Berkeley Pl & 6 Ave","lat":40.6765304,"lng":-73.97846879,"starts":2521},"4137.1":{"name":"Coffey St & Conover St","lat":40.677236,"lng":-74.015665,"starts":52},"4137.10":{"name":"Coffey St & Conover St","lat":40.677236,"lng":-74.015665,"starts":685},"4137.14":{"name":"Coffey St & Ferris St","lat":40.6781838798,"lng":-74.0170168877,"starts":1257},"4138.04":{"name":"Thomas S. Boyland St & Fulton St","lat":40.67854,"lng":-73.91367,"starts":462},"4140.03":{"name":"Pacific St & Nostrand Ave","lat":40.6776,"lng":-73.94963,"starts":2286},"4143.04":{"name":"3 Ave & Carroll St","lat":40.677027,"lng":-73.9865,"starts":1279},"4146.02":{"name":"Columbus Pl & Atlantic Ave","lat":40.67717,"lng":-73.92285,"starts":502},"4148.07":{"name":"Pacific St & Classon Ave","lat":40.6791944,"lng":-73.9587903,"starts":1780},"4151.01":{"name":"Smith St & 3 St","lat":40.6787242,"lng":-73.99599099,"starts":2235},"4154.02":{"name":"Pacific St & Utica Ave","lat":40.6767,"lng":-73.93051,"starts":453},"4157.1":{"name":"Bergen St & Vanderbilt Ave","lat":40.6794388,"lng":-73.9680438,"starts":544},"4157.10":{"name":"Bergen St & Vanderbilt Ave","lat":40.6794388,"lng":-73.9680438,"starts":5595},"4157.15":{"name":"Prospect Pl & Vanderbilt Ave","lat":40.67767534,"lng":-73.96902144,"starts":3531},"4161.01":{"name":"Van Sinderen Ave & Truxton St","lat":40.6786,"lng":-73.90369,"starts":788},"4166.08":{"name":"Prospect Pl & 6 Ave","lat":40.6793307,"lng":-73.97519523,"starts":2784},"4169.04":{"name":"Pioneer St & Van Brunt St","lat":40.679043,"lng":-74.011169,"starts":1437},"4170.08":{"name":"Somers St & Rockaway Ave","lat":40.67872,"lng":-73.91105,"starts":444},"4172.04":{"name":"Herkimer St & New York Ave","lat":40.67955,"lng":-73.94709,"starts":1001},"4175.14":{"name":"Douglass St & 4 Ave","lat":40.6792788,"lng":-73.98154004,"starts":2912},"4175.15":{"name":"Union St & 4 Ave","lat":40.6772744,"lng":-73.98282002,"starts":2802},"4179.03":{"name":"Fulton St & Saratoga Ave","lat":40.67853,"lng":-73.91642,"starts":359},"4181.1":{"name":"Brevoort Pl & Bedford Ave","lat":40.68012,"lng":-73.95362,"starts":120},"4181.10":{"name":"Brevoort Pl & Bedford Ave","lat":40.68012,"lng":-73.95362,"starts":1411},"4184.08":{"name":"President St & Hoyt St","lat":40.680057,"lng":-73.991753,"starts":1241},"4187.04":{"name":"Sumpter St & Fulton St","lat":40.67923,"lng":-73.92588,"starts":289},"4190.06":{"name":"Grand Ave & Bergen St","lat":40.678045,"lng":-73.962408,"starts":2566},"4193.14":{"name":"1 Pl & Clinton St","lat":40.6809591,"lng":-73.99905709,"starts":1995},"4196.01":{"name":"Lewis Ave & Fulton St","lat":40.67972,"lng":-73.93467,"starts":407},"4196.05":{"name":"Chauncey St & Stuyvesant Ave","lat":40.68012,"lng":-73.93168,"starts":1559},"4199.12":{"name":"Carlton Ave & Dean St","lat":40.6809741,"lng":-73.9710097,"starts":5294},"4199.13":{"name":"Carlton Ave & St Marks Ave","lat":40.6791185608,"lng":-73.9717626572,"starts":1761},"4202.04":{"name":"Richards St & Delavan St","lat":40.6794327,"lng":-74.00785041,"starts":807},"4203.04":{"name":"Somers St & Broadway","lat":40.67945,"lng":-73.90474,"starts":236},"4205.06":{"name":"Kingston Ave & Herkimer St","lat":40.67890679,"lng":-73.94142771,"starts":1301},"4208.01":{"name":"Sterling Pl & 5 Ave","lat":40.6789700705,"lng":-73.9785526693,"starts":2193},"4212.01":{"name":"MacDougal St & Rockaway Ave","lat":40.68018,"lng":-73.91136,"starts":308},"4214.03":{"name":"Macon St & Nostrand Ave","lat":40.6809833854,"lng":-73.9500479759,"starts":2971},"4214.04":{"name":"Verona Pl & Fulton St","lat":40.680356084,"lng":-73.9476791024,"starts":852},"4217.02":{"name":"Douglass St & 3 Ave","lat":40.6802133,"lng":-73.98432695,"starts":2605},"4217.06":{"name":"Degraw St & 3 Ave","lat":40.67977,"lng":-73.9847,"starts":2243},"4220.02":{"name":"Ralph Ave & Fulton St","lat":40.67922,"lng":-73.92192,"starts":737},"4222.02":{"name":"Lefferts Pl & Franklin Ave","lat":40.680342423,"lng":-73.9557689392,"starts":2398},"4225.14":{"name":"Carroll St & Smith St","lat":40.680611,"lng":-73.99475825,"starts":3703},"4228.02":{"name":"Fulton St & Utica Ave","lat":40.6794268,"lng":-73.9298911,"starts":1392},"4228.06":{"name":"Chauncey St & Malcolm X Blvd","lat":40.68044,"lng":-73.92842,"starts":1265},"4231.04":{"name":"Underhill Ave & Pacific St","lat":40.6804836,"lng":-73.9646795,"starts":3102},"4237.01":{"name":"Lewis Ave & Decatur St","lat":40.6814598,"lng":-73.934903,"starts":865},"4237.02":{"name":"Albany Ave & Fulton St","lat":40.6800105,"lng":-73.938475,"starts":1218},"4243.01":{"name":"Commerce St & Van Brunt St","lat":40.6812117,"lng":-74.00860912,"starts":745},"4244.06":{"name":"Broadway & Furman Ave","lat":40.68139,"lng":-73.90756,"starts":401},"4246.02":{"name":"MacDonough St & Marcy Ave","lat":40.68078,"lng":-73.94613,"starts":1738},"4249.01":{"name":"St Marks Pl & 4 Ave","lat":40.68197,"lng":-73.98034,"starts":1716},"4253.02":{"name":"Thomas S. Boyland St & Marion St","lat":40.6814658848,"lng":-73.9141568542,"starts":689},"4255.05":{"name":"Hancock St & Bedford Ave","lat":40.68216564,"lng":-73.95399026,"starts":2659},"4258.07":{"name":"Degraw St & Hoyt St","lat":40.6819904427,"lng":-73.9907902479,"starts":1462},"4261.03":{"name":"Patchen Ave & Bainbridge St","lat":40.68143,"lng":-73.92565,"starts":657},"4263.12":{"name":"Fulton St & Irving Pl","lat":40.68186,"lng":-73.959432,"starts":3384},"4266.03":{"name":"Clinton St & Union St","lat":40.6831164,"lng":-73.99785267,"starts":2451},"4278.03":{"name":"Marcus Garvey Blvd & Macon St","lat":40.682601,"lng":-73.938037,"starts":1819},"4281.08":{"name":"Bergen St & Flatbush Ave","lat":40.6809447235,"lng":-73.9756733179,"starts":5214},"4285.09":{"name":"Rockaway Ave & Bainbridge St","lat":40.6831998817,"lng":-73.9116664231,"starts":979},"4290.06":{"name":"Wyckoff St & 3 Ave","lat":40.6827549,"lng":-73.98258555,"starts":1660},"4293.05":{"name":"Chauncey St & Howard Ave","lat":40.68158,"lng":-73.91959,"starts":719},"4298.05":{"name":"Degraw St & Smith St","lat":40.6829151,"lng":-73.99318208,"starts":2434},"4301.04":{"name":"Macon St & Patchen Ave","lat":40.68374,"lng":-73.9261,"starts":1167},"4301.07":{"name":"MacDonough St & Malcolm X Blvd","lat":40.68273,"lng":-73.92926,"starts":1025},"4307.13":{"name":"President St & Henry St","lat":40.6828002986,"lng":-73.999904203,"starts":1722},"4310.06":{"name":"Macon St & Lewis Ave","lat":40.68282,"lng":-73.93488,"starts":1517},"4317.05":{"name":"Bushwick Ave & Furman Ave","lat":40.68281,"lng":-73.90623,"starts":578},"4319.07":{"name":"Halsey St & Tompkins Ave","lat":40.6823687,"lng":-73.944118,"starts":3531},"4322.06":{"name":"Bergen St & 4 Ave","lat":40.6825642576,"lng":-73.9798977971,"starts":3119},"4325.03":{"name":"Thomas S. Boyland St & Macon St","lat":40.68491,"lng":-73.91493,"starts":213},"4327.09":{"name":"Putnam Ave & Nostrand Ave","lat":40.68402,"lng":-73.94977,"starts":2276},"4330.09":{"name":"Hoyt St & Warren St","lat":40.6843549,"lng":-73.98901629,"starts":605},"4334.02":{"name":"Halsey St & Ralph Ave","lat":40.68494,"lng":-73.92299,"starts":854},"4336.01":{"name":"Monroe St & Classon Ave","lat":40.6845683,"lng":-73.95881081,"starts":1532},"4339.01":{"name":"Butler St & Court St","lat":40.6849894,"lng":-73.99440329,"starts":1830},"4342.04":{"name":"Hancock St & Malcolm X Blvd","lat":40.68487,"lng":-73.9293,"starts":1617},"4345.11":{"name":"Fulton St & Waverly Ave","lat":40.6832386546,"lng":-73.9659959078,"starts":4792},"4348.07":{"name":"Carroll St & Columbia St","lat":40.6830456,"lng":-74.00348559,"starts":1876},"4354.05":{"name":"S Portland Ave & Hanson Pl","lat":40.68539567,"lng":-73.97431458,"starts":3274},"4354.07":{"name":"Atlantic Ave & Fort Greene Pl","lat":40.68382604,"lng":-73.97632328,"starts":5037},"4357.01":{"name":"Moffat St & Bushwick","lat":40.68458,"lng":-73.90925,"starts":639},"4362.04":{"name":"Pacific St & Nevins St","lat":40.6853761,"lng":-73.98302136,"starts":2013},"4366.01":{"name":"Halsey St & Broadway","lat":40.68565,"lng":-73.91564,"starts":769},"4366.1":{"name":"Decatur St & Saratoga Ave","lat":40.68332,"lng":-73.91711,"starts":34},"4366.10":{"name":"Decatur St & Saratoga Ave","lat":40.68332,"lng":-73.91711,"starts":715},"4368.05":{"name":"Monroe St & Bedford Ave","lat":40.6851443,"lng":-73.95380904,"starts":3619},"4371.01":{"name":"Warren St & Smith St","lat":40.68542401,"lng":-73.9912777394,"starts":2392},"4374.01":{"name":"Picnic Point","lat":40.6851255952,"lng":-74.0253531933,"starts":781},"4375.02":{"name":"Jefferson Ave & Patchen Ave","lat":40.68609,"lng":-73.92628,"starts":764},"4377.04":{"name":"Cambridge Pl & Gates Ave","lat":40.68488,"lng":-73.96304,"starts":2822},"4380.08":{"name":"Henry St & Degraw St","lat":40.6847513798,"lng":-73.9991725556,"starts":2386},"4383.06":{"name":"Hancock St & Stuyvesant Ave","lat":40.68454,"lng":-73.9322,"starts":1251},"4386.05":{"name":"Fulton St & Clermont Ave","lat":40.68415748,"lng":-73.96922273,"starts":2802},"4386.07":{"name":"Carlton Ave & Greene Ave","lat":40.685957,"lng":-73.971468,"starts":1831},"4392.04":{"name":"Putnam Ave & Throop Ave","lat":40.6851532,"lng":-73.94111,"starts":2548},"4395.07":{"name":"Hanson Pl & Ashland Pl","lat":40.6850680731,"lng":-73.977907598,"starts":8576},"4399.03":{"name":"Eldert St & Bushwick Ave","lat":40.68652,"lng":-73.91321,"starts":838},"4401.04":{"name":"Marcy Ave & Gates Ave","lat":40.686679,"lng":-73.947417,"starts":1158},"4404.1":{"name":"Bond St & Bergen St","lat":40.6849668,"lng":-73.98620772,"starts":219},"4404.10":{"name":"Bond St & Bergen St","lat":40.6849668,"lng":-73.98620772,"starts":2191},"4408.07":{"name":"Macon St & Howard Ave","lat":40.68452,"lng":-73.92011,"starts":955},"4410.02":{"name":"Franklin Ave & Quincy St","lat":40.68636,"lng":-73.95678,"starts":2506},"4413.08":{"name":"Warren St & Court St","lat":40.686371,"lng":-73.99383324,"starts":1944},"4416.1":{"name":"Madison St & Malcolm X Blvd","lat":40.68713,"lng":-73.93008,"starts":125},"4416.10":{"name":"Madison St & Malcolm X Blvd","lat":40.68713,"lng":-73.93008,"starts":1303},"4422.04":{"name":"Columbia St & Degraw St","lat":40.6859296,"lng":-74.00242364,"starts":1705},"4422.05":{"name":"Columbia St & Kane St","lat":40.68763155,"lng":-74.0016256,"starts":1080},"4425.02":{"name":"Lewis Ave & Madison St","lat":40.686312,"lng":-73.935775,"starts":1857},"4428.02":{"name":"Cumberland St & Lafayette Ave","lat":40.68753406,"lng":-73.97265183,"starts":3248},"4432.1":{"name":"Central Ave & Decatur St","lat":40.6882,"lng":-73.90798,"starts":76},"4432.10":{"name":"Central Ave & Decatur St","lat":40.6882,"lng":-73.90798,"starts":629},"4434.06":{"name":"Monroe St & Tompkins Ave","lat":40.686203,"lng":-73.944694,"starts":2816},"4437.01":{"name":"3 Ave & Schermerhorn St","lat":40.68683208,"lng":-73.9796772,"starts":2856},"4437.09":{"name":"Nevins St & Schermerhorn St","lat":40.6873724765,"lng":-73.9817605913,"starts":3165},"4440.02":{"name":"Yankee Ferry Terminal","lat":40.6870657988,"lng":-74.0167558512,"starts":1824},"4441.06":{"name":"Broadway & Hancock St","lat":40.68663,"lng":-73.9168,"starts":883},"4446.01":{"name":"Bergen St & Smith St","lat":40.6867443,"lng":-73.99063168,"starts":4744},"4446.03":{"name":"Pacific St & Smith St","lat":40.6878809396,"lng":-73.989392817,"starts":2713},"4446.05":{"name":"Dean St & Hoyt St","lat":40.6864442,"lng":-73.98759104,"starts":1902},"4450.06":{"name":"Putnam Ave & Ralph Ave","lat":40.68705,"lng":-73.92338,"starts":1443},"4452.03":{"name":"Lexington Ave & Classon Ave","lat":40.68676793,"lng":-73.95928168,"starts":3285},"4455.1":{"name":"Congress St & Clinton St","lat":40.688255166,"lng":-73.9954519272,"starts":252},"4455.10":{"name":"Congress St & Clinton St","lat":40.688255166,"lng":-73.9954519272,"starts":2471},"4455.11":{"name":"Kane St & Clinton St","lat":40.6861758,"lng":-73.99645295,"starts":2096},"4458.06":{"name":"Stuyvesant Ave & Gates Ave","lat":40.68834,"lng":-73.93306,"starts":966},"4461.01":{"name":"Clermont Ave & Lafayette Ave","lat":40.68764484,"lng":-73.96968902,"starts":2763},"4461.04":{"name":"DeKalb Ave & Vanderbilt Ave","lat":40.68940747,"lng":-73.96885458,"starts":5060},"4461.07":{"name":"Waverly Ave & Lafayette Ave","lat":40.688231,"lng":-73.966804,"starts":2443},"4467.03":{"name":"Monroe St & Marcus Garvey Blvd","lat":40.686722,"lng":-73.938988,"starts":1577},"4470.09":{"name":"Lafayette Ave & Ft Greene Pl","lat":40.6870023129,"lng":-73.976649642,"starts":5508},"4474.01":{"name":"Halsey St & Evergreen Ave","lat":40.68858,"lng":-73.91227,"starts":705},"4476.03":{"name":"Marcy Ave & Lafayette Ave","lat":40.6900815,"lng":-73.947915,"starts":2748},"4479.06":{"name":"Bond St & Fulton St","lat":40.6896218879,"lng":-73.9830426872,"starts":5712},"4479.1":{"name":"Schermerhorn St & Hoyt St","lat":40.6886263,"lng":-73.9851911,"starts":300},"4479.10":{"name":"Schermerhorn St & Hoyt St","lat":40.6886263065,"lng":-73.985191131,"starts":5675},"4483.1":{"name":"Broadway & Madison St","lat":40.68822,"lng":-73.91966,"starts":112},"4483.10":{"name":"Broadway & Madison St","lat":40.68822,"lng":-73.91966,"starts":1498},"4485.1":{"name":"Clifton Pl & Bedford Ave","lat":40.688655,"lng":-73.955156,"starts":124},"4485.10":{"name":"Clifton Pl & Bedford Ave","lat":40.688655,"lng":-73.955156,"starts":2166},"4488.08":{"name":"Court St & State St","lat":40.6902375,"lng":-73.99203074,"starts":5164},"4491.09":{"name":"Monroe St & Patchen Ave","lat":40.68814,"lng":-73.92693,"starts":1387},"4494.04":{"name":"Lafayette Ave & St James Pl","lat":40.68851534,"lng":-73.9647628,"starts":3957},"4497.09":{"name":"Congress St & Hicks St","lat":40.6893952,"lng":-73.9995126,"starts":1644},"4500.07":{"name":"Lexington Ave & Stuyvesant Ave","lat":40.68973,"lng":-73.93353,"starts":1226},"4507.07":{"name":"Wilson Ave & Moffat St","lat":40.68906,"lng":-73.90506,"starts":1008},"4510.04":{"name":"Greene Ave & Throop Ave","lat":40.6894932071,"lng":-73.9420610116,"starts":2501},"4513.06":{"name":"DeKalb Ave & Hudson Ave","lat":40.689888,"lng":-73.981013,"starts":4493},"4513.09":{"name":"Ashland Pl & Dekalb Ave","lat":40.690065,"lng":-73.978776,"starts":1976},"4517.03":{"name":"Jefferson Ave & Evergreen Ave","lat":40.68989,"lng":-73.91458,"starts":1070},"4519.02":{"name":"Greene Ave & Nostrand Ave","lat":40.6883337,"lng":-73.950916,"starts":2321},"4519.04":{"name":"Kosciuszko St & Nostrand Ave","lat":40.69072549,"lng":-73.95133465,"starts":2275},"4522.07":{"name":"State St & Smith St","lat":40.68917,"lng":-73.9886,"starts":2720},"4526.01":{"name":"Grove St & Broadway","lat":40.69047,"lng":-73.923511,"starts":1937},"4528.01":{"name":"DeKalb Ave & Franklin Ave","lat":40.6906480708,"lng":-73.9574617893,"starts":2497},"4528.03":{"name":"Lafayette Ave & Franklin Ave","lat":40.689271,"lng":-73.957324,"starts":1505},"4531.05":{"name":"Henry St & Atlantic Ave","lat":40.69089272,"lng":-73.99612349,"starts":3687},"4534.06":{"name":"Lexington Ave & Patchen Ave","lat":40.6904,"lng":-73.9277,"starts":1417},"4543.07":{"name":"Lewis Ave & Greene Ave","lat":40.68995,"lng":-73.9365,"starts":1684},"4546.05":{"name":"Washington Park","lat":40.6917823,"lng":-73.9737299,"starts":3398},"4546.06":{"name":"DeKalb Ave & S Portland Ave","lat":40.6896701855,"lng":-73.9752735512,"starts":4079},"4550.05":{"name":"Central Ave & Covert St","lat":40.68929,"lng":-73.90951,"starts":799},"4553.04":{"name":"Kosciuszko St & Tompkins Ave","lat":40.69128258,"lng":-73.9452416,"starts":2667},"4560.01":{"name":"Madison St & Evergreen Ave","lat":40.69122,"lng":-73.91693,"starts":1020},"4562.02":{"name":"DeKalb Ave & Bedford Ave","lat":40.690894,"lng":-73.955195,"starts":2190},"4565.07":{"name":"Schermerhorn St & Court St","lat":40.6910363749,"lng":-73.992010653,"starts":2746},"4568.01":{"name":"Van Buren St & Broadway","lat":40.692,"lng":-73.92617,"starts":955},"4576.11":{"name":"Lafayette Ave & Stuyvesant Ave","lat":40.6919925158,"lng":-73.9325501025,"starts":1189},"4582.08":{"name":"Knickerbocker Ave & Moffat St","lat":40.690434,"lng":-73.903737,"starts":540},"4587.02":{"name":"Willoughby St & Ashland Pl","lat":40.69178,"lng":-73.97877,"starts":1320},"4590.01":{"name":"Soissons Landing","lat":40.6923166072,"lng":-74.014865756,"starts":2113},"4591.04":{"name":"Central Ave & Weirfield St","lat":40.69055,"lng":-73.91181,"starts":901},"4593.05":{"name":"Marcy Ave & Hart St","lat":40.693022,"lng":-73.94868,"starts":2087},"4596.05":{"name":"Duffield St & Willoughby St","lat":40.69221589,"lng":-73.9842844,"starts":4021},"4596.09":{"name":"Lawrence St & Willoughby St","lat":40.69236178,"lng":-73.98631746,"starts":4158},"4600.09":{"name":"Bushwick Ave & Linden St","lat":40.69146,"lng":-73.92146,"starts":1528},"4605.04":{"name":"Clinton St & Joralemon St","lat":40.69239502,"lng":-73.99337909,"starts":3640},"4608.01":{"name":"Broadway & Kosciuszko St","lat":40.69329,"lng":-73.92852,"starts":1406},"4611.03":{"name":"Willoughby Ave & Hall St","lat":40.69196035,"lng":-73.96536851,"starts":4975},"4614.04":{"name":"Atlantic Ave & Furman St","lat":40.69165183,"lng":-73.9999786,"starts":5818},"4615.01":{"name":"Wyckoff Ave & Cooper Ave","lat":40.69338,"lng":-73.90061,"starts":667},"4617.01":{"name":"Lewis Ave & Kosciuszko St","lat":40.69237074,"lng":-73.93705428,"starts":1393},"4620.02":{"name":"Adelphi St & Myrtle Ave","lat":40.69308257,"lng":-73.97178913,"starts":4264},"4623.02":{"name":"Knickerbocker Ave & Halsey St","lat":40.693,"lng":-73.90824,"starts":886},"4625.01":{"name":"Pulaski St & Throop Ave","lat":40.693115,"lng":-73.943149,"starts":2232},"4628.05":{"name":"Willoughby St & Fleet St","lat":40.69196566,"lng":-73.9813018,"starts":4147},"4628.07":{"name":"Myrtle Ave & Fleet Pl","lat":40.693534,"lng":-73.981909,"starts":2896},"4632.1":{"name":"Central Ave & Woodbine St","lat":40.69296,"lng":-73.91605,"starts":147},"4632.10":{"name":"Central Ave & Woodbine St","lat":40.69296,"lng":-73.91605,"starts":1368},"4634.02":{"name":"Willoughby Ave & Walworth St","lat":40.69331716,"lng":-73.95381995,"starts":2005},"4637.06":{"name":"Fulton St & Adams St","lat":40.6924182926,"lng":-73.989494741,"starts":5378},"4640.01":{"name":"Bushwick Ave & Harman St","lat":40.69356,"lng":-73.92524,"starts":1820},"4645.04":{"name":"Henry St & Remsen St","lat":40.6940096487,"lng":-73.9946512878,"starts":2092},"4645.09":{"name":"Hicks St & Montague St","lat":40.69512845,"lng":-73.99595065,"starts":3081},"4648.03":{"name":"Malcolm X Blvd & DeKalb Ave","lat":40.6938,"lng":-73.93114,"starts":1305},"4651.02":{"name":"Clinton Ave & Myrtle Ave","lat":40.693261,"lng":-73.968896,"starts":5223},"4654.01":{"name":"Norman St & Wyckoff Ave","lat":40.69517,"lng":-73.90311,"starts":1335},"4656.03":{"name":"Pulaski St & Marcus Garvey Blvd","lat":40.6933982,"lng":-73.939877,"starts":1465},"4659.02":{"name":"Myrtle Ave & St Edwards St","lat":40.69327018,"lng":-73.97703874,"starts":1735},"4663.02":{"name":"Knickerbocker Ave & Hancock St","lat":40.69385,"lng":-73.90974,"starts":1159},"4663.06":{"name":"Putnam Ave & Knickerbocker Ave","lat":40.69545,"lng":-73.91164,"starts":952},"4665.02":{"name":"Willoughby Ave & Tompkins Ave","lat":40.69425403,"lng":-73.94626915,"starts":2292},"4668.08":{"name":"Johnson St & Gold St","lat":40.69474881,"lng":-73.98362464,"starts":2182},"4672.01":{"name":"Menahan St & Central Ave","lat":40.69543,"lng":-73.9196,"starts":1059},"4677.01":{"name":"Cadman Plaza E & Tillary St","lat":40.69597683,"lng":-73.99014892,"starts":2476},"4677.06":{"name":"Montague St & Clinton St","lat":40.6942715,"lng":-73.9923272,"starts":4027},"4680.05":{"name":"Bushwick Ave & Dekalb Ave","lat":40.6950200304,"lng":-73.9282499997,"starts":1216},"4683.02":{"name":"Emerson Pl & Myrtle Ave","lat":40.69363137,"lng":-73.96223558,"starts":4972},"4687.03":{"name":"Cypress Ave & St Felix Ave","lat":40.69559,"lng":-73.89927,"starts":231},"4689.03":{"name":"Suydam St & Broadway","lat":40.69544,"lng":-73.93223,"starts":2140},"4689.08":{"name":"Stuyvesant Ave & Hart St","lat":40.69465,"lng":-73.9343,"starts":1192},"4692.01":{"name":"Clermont Ave & Park Ave","lat":40.69573398,"lng":-73.97129668,"starts":1776},"4695.04":{"name":"Irving Ave & Halsey St","lat":40.69467,"lng":-73.90663,"starts":1160},"4697.01":{"name":"Throop Ave & Myrtle Ave","lat":40.69622937,"lng":-73.94371094,"starts":1057},"4700.06":{"name":"Park Ave & St Edwards St","lat":40.69608941,"lng":-73.97803415,"starts":783},"4707.03":{"name":"Myrtle Ave & Marcy Ave","lat":40.69539817,"lng":-73.94954908,"starts":1416},"4707.04":{"name":"Nostrand Ave & Myrtle Ave","lat":40.69527008,"lng":-73.95238108,"starts":1427},"4710.06":{"name":"Jay St & Tech Pl","lat":40.695065,"lng":-73.987167,"starts":3218},"4713.01":{"name":"Central Ave & Himrod St","lat":40.69676,"lng":-73.92302,"starts":1325},"4715.01":{"name":"Franklin Ave & Myrtle Ave","lat":40.6945460872,"lng":-73.9580136538,"starts":1159},"4718.08":{"name":"Pierrepont St & Monroe Pl","lat":40.6953569332,"lng":-73.9934402704,"starts":2042},"4719.04":{"name":"St Felix Ave & 61 St","lat":40.69715,"lng":-73.8936,"starts":585},"4721.01":{"name":"Cedar St & Evergreen Ave","lat":40.69671,"lng":-73.92807,"starts":1019},"4724.03":{"name":"Washington Ave & Park Ave","lat":40.69610226,"lng":-73.96751037,"starts":3827},"4727.06":{"name":"Summerfield St & Cypress Ave","lat":40.69662,"lng":-73.90056,"starts":309},"4729.01":{"name":"Myrtle Ave & Lewis Ave","lat":40.69681963,"lng":-73.93756926,"starts":2251},"4732.04":{"name":"Carlton Ave & Park Ave","lat":40.69580705,"lng":-73.97355569,"starts":1347},"4732.08":{"name":"Carlton Ave & Flushing Ave","lat":40.697787,"lng":-73.973736,"starts":1845},"4735.03":{"name":"Putnam Ave & Wyckoff Ave","lat":40.69811,"lng":-73.90904,"starts":1067},"4735.16":{"name":"Hancock St & Wyckoff Ave","lat":40.6972,"lng":-73.90674,"starts":822},"4743.04":{"name":"Linden St & Knickerbocker Ave","lat":40.69714,"lng":-73.91566,"starts":677},"4748.07":{"name":"Clinton St & Tillary St","lat":40.6962329713,"lng":-73.991420567,"starts":2940},"4751.01":{"name":"Cedar St & Myrtle Ave","lat":40.697842,"lng":-73.926241,"starts":1491},"4756.04":{"name":"Brooklyn Bridge Park - Pier 2","lat":40.698458,"lng":-73.997178,"starts":3284},"4757.06":{"name":"Seneca Ave & Decatur St","lat":40.69723,"lng":-73.89811,"starts":183},"4759.02":{"name":"Willoughby Ave & Myrtle Ave","lat":40.6975700268,"lng":-73.9309799805,"starts":2905},"4762.04":{"name":"Clinton Ave & Flushing Ave","lat":40.69794,"lng":-73.96986848,"starts":1598},"4762.05":{"name":"Flushing Ave & Vanderbilt Ave","lat":40.6979503157,"lng":-73.9707756042,"starts":3923},"4765.07":{"name":"Cypress Ave & George St","lat":40.69812,"lng":-73.90271,"starts":275},"4768.02":{"name":"Park Ave & Marcus Garvey Blvd","lat":40.698617,"lng":-73.941342,"starts":1524},"4771.07":{"name":"N Portland Ave & Flushing Ave","lat":40.697926,"lng":-73.97663,"starts":1003},"4775.01":{"name":"Irving Ave & Palmetto St","lat":40.698,"lng":-73.9127,"starts":849},"4778.03":{"name":"Park Ave & Marcy Ave","lat":40.697576,"lng":-73.948881,"starts":464},"4781.03":{"name":"Concord St & Bridge St","lat":40.69766564,"lng":-73.98476437,"starts":1978},"4781.05":{"name":"Nassau St & Duffield St","lat":40.698477,"lng":-73.98384,"starts":2105},"4784.02":{"name":"Greene Ave & Myrtle Ave","lat":40.698568,"lng":-73.918877,"starts":1331},"4789.03":{"name":"Clark St & Henry St","lat":40.69760127,"lng":-73.99344559,"starts":4455},"4792.03":{"name":"Central Ave & Starr St","lat":40.700003,"lng":-73.92834,"starts":2027},"4798.02":{"name":"Forest Ave & Summerfield St","lat":40.69922,"lng":-73.89795,"starts":478},"4798.1":{"name":"Stephen St & Seneca Ave","lat":40.6988,"lng":-73.9007,"starts":19},"4798.10":{"name":"Stephen St & Seneca Ave","lat":40.6988,"lng":-73.9007,"starts":237},"4801.04":{"name":"Melrose St & Broadway","lat":40.697481,"lng":-73.935877,"starts":3393},"4804.02":{"name":"Dock 72 Way & Market St","lat":40.69985,"lng":-73.97141,"starts":2142},"4807.02":{"name":"Madison St & Cypress Ave","lat":40.70068,"lng":-73.90742,"starts":887},"4812.02":{"name":"Nassau St & Navy St","lat":40.69839895,"lng":-73.98068914,"starts":2066},"4812.04":{"name":"Sands St Gate","lat":40.699569,"lng":-73.979827,"starts":2326},"4816.02":{"name":"Myrtle Ave & Linden St","lat":40.69943,"lng":-73.91337,"starts":440},"4816.05":{"name":"Myrtle Ave & Grove St","lat":40.69905,"lng":-73.91516,"starts":731},"4818.02":{"name":"Nostrand Ave & Flushing Ave","lat":40.69928,"lng":-73.953259,"starts":762},"4818.03":{"name":"Union Ave & Wallabout St","lat":40.70029511,"lng":-73.95032283,"starts":884},"4821.03":{"name":"Sands St & Jay St","lat":40.700119,"lng":-73.9862,"starts":2820},"4821.06":{"name":"Cadman Plaza E & Red Cross Pl","lat":40.69991755,"lng":-73.98971773,"starts":2104},"4821.1":{"name":"Adams St & Prospect St","lat":40.7007630833,"lng":-73.9886981249,"starts":266},"4821.10":{"name":"Adams St & Prospect St","lat":40.7007630833,"lng":-73.9886981249,"starts":2290},"4824.03":{"name":"Stockholm St & Wilson Ave","lat":40.699304,"lng":-73.923044,"starts":2070},"4826.04":{"name":"Wallabout St & Kent Ave","lat":40.6991049,"lng":-73.960633406,"starts":837},"4829.01":{"name":"Columbia Heights & Cranberry St","lat":40.70037867,"lng":-73.99548059,"starts":2376},"4830.02":{"name":"61 St & 60 Ln","lat":40.70055,"lng":-73.8943,"starts":467},"4832.07":{"name":"Central Ave & Melrose St","lat":40.70112,"lng":-73.93039,"starts":1188},"4837.03":{"name":"Centre St & Seneca Ave","lat":40.69969,"lng":-73.9022,"starts":583},"4840.06":{"name":"Beaver St & Fayette St","lat":40.70099,"lng":-73.93921,"starts":1539},"4843.01":{"name":"5 St & Market St","lat":40.6999974844,"lng":-73.9744012803,"starts":1196},"4846.01":{"name":"South St & Whitehall St","lat":40.70122128,"lng":-74.01234218,"starts":4142},"4847.03":{"name":"Wyckoff Ave & Gates Ave","lat":40.6998714088,"lng":-73.9117187262,"starts":3028},"4850.04":{"name":"Tompkins Ave & Hopkins St","lat":40.69957608,"lng":-73.94708417,"starts":1349},"4853.06":{"name":"Bridge St & York St","lat":40.7013330372,"lng":-73.9847130889,"starts":1659},"4856.05":{"name":"Irving Ave & Harman St","lat":40.70108,"lng":-73.9179,"starts":1427},"4861.05":{"name":"Henry St & Middagh St","lat":40.7003,"lng":-73.991581,"starts":1950},"4862.04":{"name":"Myrtle Ave & 65 St","lat":40.70117,"lng":-73.8904,"starts":685},"4862.07":{"name":"Cooper Ave & 65 Pl","lat":40.69953,"lng":-73.88873,"starts":319},"4864.09":{"name":"Wilson Ave & Troutman St","lat":40.70166,"lng":-73.92754,"starts":2383},"4871.02":{"name":"71 Ave & Myrtle Ave","lat":40.70067,"lng":-73.89907,"starts":839},"4873.08":{"name":"Evergreen Ave & Noll St","lat":40.70106,"lng":-73.93318,"starts":1975},"4880.11":{"name":"Madison St & Seneca Ave","lat":40.70183,"lng":-73.90625,"starts":853},"4883.03":{"name":"Broadway & Whipple St","lat":40.7016657,"lng":-73.9437303,"starts":2108},"4889.06":{"name":"Bus Slip & State St","lat":40.701907,"lng":-74.013942,"starts":2346},"4890.11":{"name":"Menahan St & Wyckoff Ave","lat":40.70113,"lng":-73.91422,"starts":948},"4892.02":{"name":"Lorimer St & Harrison Ave","lat":40.702726,"lng":-73.94984,"starts":192},"4895.03":{"name":"Front St & Jay St","lat":40.702461,"lng":-73.986842,"starts":4955},"4895.09":{"name":"Jay St & York St","lat":40.7014031726,"lng":-73.9867267013,"starts":4462},"4895.15":{"name":"Pearl St & York St","lat":40.7014046341,"lng":-73.9876802266,"starts":1914},"4898.02":{"name":"Irving Ave & DeKalb Ave","lat":40.7027,"lng":-73.92095,"starts":1676},"4903.08":{"name":"Old Fulton St","lat":40.70277159,"lng":-73.99383605,"starts":3408},"4903.09":{"name":"Dock St & Front St","lat":40.702709,"lng":-73.99253,"starts":3062},"4904.03":{"name":"Cypress Hills St & Otto Rd","lat":40.70204,"lng":-73.89288,"starts":216},"4906.07":{"name":"George St & Wilson Ave","lat":40.702997,"lng":-73.92997,"starts":1534},"4912.1":{"name":"Catalpa Ave & Woodward Ave","lat":40.70229,"lng":-73.90145,"starts":174},"4912.10":{"name":"Catalpa Ave & Woodward Ave","lat":40.70229,"lng":-73.90145,"starts":984},"4914.03":{"name":"Bushwick Ave & Forrest St","lat":40.70076,"lng":-73.93641,"starts":1590},"4920.13":{"name":"South St & Broad St","lat":40.7018885891,"lng":-74.0108987689,"starts":361},"4921.04":{"name":"Cypress Ave & Palmetto St","lat":40.7015734087,"lng":-73.9087629318,"starts":408},"4927.04":{"name":"Front St & Gold St","lat":40.70224,"lng":-73.982578,"starts":2046},"4931.05":{"name":"Wyckoff Ave & Stanhope St","lat":40.703545,"lng":-73.917775,"starts":3041},"4933.03":{"name":"Marcy Ave & Lynch St","lat":40.702753,"lng":-73.953168,"starts":151},"4933.04":{"name":"Marcy Ave & Rutledge St","lat":40.703681,"lng":-73.95427,"starts":159},"4936.21":{"name":"Main St & Plymouth St","lat":40.7037816735,"lng":-73.9907339215,"starts":5113},"4939.07":{"name":"Suydam St & Knickerbocker Ave","lat":40.702013,"lng":-73.923769,"starts":2964},"4945.06":{"name":"Fresh Pond Rd & 69 Ave","lat":40.70311,"lng":-73.89547,"starts":595},"4947.04":{"name":"Central Ave & Flushing Ave","lat":40.702831,"lng":-73.9333,"starts":1099},"4953.04":{"name":"South St & Gouverneur Ln","lat":40.70355377,"lng":-74.00670227,"starts":4378},"4954.07":{"name":"Madison St & Woodward Ave","lat":40.70408,"lng":-73.90408,"starts":862},"4956.02":{"name":"Humboldt St & Varet St","lat":40.7031724,"lng":-73.940636,"starts":1501},"4962.01":{"name":"Broadway & Battery Pl","lat":40.70463334,"lng":-74.01361706,"starts":3122},"4962.08":{"name":"Broad St & Bridge St","lat":40.70365182,"lng":-74.01167797,"starts":1807},"4962.09":{"name":"Pearl St & Whitehall St","lat":40.703144,"lng":-74.013178,"starts":1096},"4963.13":{"name":"Menahan St & Seneca Ave","lat":40.70461,"lng":-73.91054,"starts":974},"4965.01":{"name":"Lorimer St & Broadway","lat":40.70411791,"lng":-73.94818595,"starts":1168},"4968.03":{"name":"Bridge St & Water St","lat":40.7029693416,"lng":-73.9846909046,"starts":2978},"4971.01":{"name":"Hart St & Wyckoff Ave","lat":40.704876,"lng":-73.919911,"starts":1080},"4977.03":{"name":"65 St & Otto Rd","lat":40.70389,"lng":-73.89116,"starts":271},"4979.07":{"name":"Knickerbocker Ave & George St","lat":40.704425,"lng":-73.92836,"starts":1548},"4982.02":{"name":"Taylor St & Bedford Ave","lat":40.705774,"lng":-73.963252,"starts":590},"4985.09":{"name":"60 Pl & 67 Ave","lat":40.70497,"lng":-73.89965,"starts":279},"4987.06":{"name":"White St & Moore St","lat":40.704508,"lng":-73.9351,"starts":1782},"4990.02":{"name":"Railroad Ave & Kay Ave","lat":40.705148077,"lng":-73.9707809687,"starts":216},"4993.02":{"name":"Pearl St & Hanover Square","lat":40.7047177,"lng":-74.00926027,"starts":3779},"4993.13":{"name":"Old Slip & South St","lat":40.703366867,"lng":-74.0078678727,"starts":3563},"4993.15":{"name":"Water St & Gouverneur Ln","lat":40.7046966789,"lng":-74.0080341697,"starts":2287},"4994.1":{"name":"Onderdonk Ave & Gates Ave","lat":40.70413,"lng":-73.90737,"starts":101},"4994.10":{"name":"Onderdonk Ave & Gates Ave","lat":40.70413,"lng":-73.90737,"starts":884},"4996.08":{"name":"McKibbin St & Manhattan Ave","lat":40.70510918,"lng":-73.94407279,"starts":2393},"5001.08":{"name":"Little West St & 1 Pl","lat":40.70569254,"lng":-74.01677685,"starts":4733},"5002.09":{"name":"Harman St & Seneca Ave","lat":40.70577,"lng":-73.91292,"starts":872},"5004.02":{"name":"Boerum St & Broadway","lat":40.70538077,"lng":-73.94976519,"starts":2145},"5010.02":{"name":"Willoughby Ave & Wyckoff Ave","lat":40.705614,"lng":-73.92153,"starts":2600},"5018.06":{"name":"Knickerbocker Ave & Thames St","lat":40.70539,"lng":-73.92976,"starts":1821},"5021.05":{"name":"Kent Ave & Division Ave","lat":40.7065636747,"lng":-73.9683187008,"starts":2249},"5024.1":{"name":"Water St & Fletcher St","lat":40.7064107552,"lng":-74.0055973828,"starts":451},"5024.10":{"name":"Water St & Fletcher St","lat":40.7064107552,"lng":-74.0055973828,"starts":4592},"5025.02":{"name":"Madison St & Forest Ave","lat":40.70555,"lng":-73.90245,"starts":859},"5027.02":{"name":"Bushwick Ave & McKibbin St","lat":40.705517,"lng":-73.93936,"starts":1043},"5033.01":{"name":"Broadway & Morris St","lat":40.7059451327,"lng":-74.0132188797,"starts":4271},"5034.03":{"name":"Menahan St & Onderdonk Ave","lat":40.70553,"lng":-73.9096,"starts":1074},"5036.06":{"name":"Leonard St & Boerum St","lat":40.70583339,"lng":-73.94644578,"starts":1834},"5043.06":{"name":"Suydam St & St Nicholas Ave","lat":40.70636,"lng":-73.91945,"starts":897},"5045.05":{"name":"Division Ave & Hooper St","lat":40.706842031,"lng":-73.9544353965,"starts":2287},"5051.01":{"name":"Wyckoff Ave & Jefferson St","lat":40.707165,"lng":-73.923711,"starts":2499},"5051.02":{"name":"Irving Ave & Jefferson St","lat":40.70538,"lng":-73.92535,"starts":2139},"5053.01":{"name":"Lee Ave & Taylor St","lat":40.706732,"lng":-73.961241,"starts":279},"5057.07":{"name":"67 Ave & Fresh Pond Rd","lat":40.70575,"lng":-73.89676,"starts":740},"5057.09":{"name":"64 St & Woodbine St","lat":40.70809,"lng":-73.89549,"starts":447},"5059.02":{"name":"McKibbin St & Bogart St","lat":40.706237,"lng":-73.933871,"starts":2697},"5065.1":{"name":"Maiden Ln & Pearl St","lat":40.70706456,"lng":-74.00731853,"starts":205},"5065.10":{"name":"Maiden Ln & Pearl St","lat":40.70706456,"lng":-74.00731853,"starts":2962},"5065.12":{"name":"William St & Pine St","lat":40.70717936,"lng":-74.00887308,"starts":3621},"5065.14":{"name":"Cliff St & Fulton St","lat":40.70838,"lng":-74.00495,"starts":4634},"5066.03":{"name":"Fairview Ave & Linden St","lat":40.70694,"lng":-73.90632,"starts":975},"5068.02":{"name":"Montrose Ave & Bushwick Ave","lat":40.70767788,"lng":-73.94016171,"starts":5267},"5073.07":{"name":"Greenwich St & Rector St","lat":40.7080658238,"lng":-74.0135595202,"starts":2762},"5074.08":{"name":"Woodward Ave & Harman St","lat":40.70793,"lng":-73.91092,"starts":1046},"5076.04":{"name":"Scholes St & Lorimer St","lat":40.708323,"lng":-73.948732,"starts":4198},"5082.08":{"name":"Jefferson St & Cypress Ave","lat":40.70907,"lng":-73.92157,"starts":1695},"5084.03":{"name":"Division Ave & Marcy Ave","lat":40.70708701,"lng":-73.95796783,"starts":688},"5090.06":{"name":"Harrison Pl & Porter Ave","lat":40.70686,"lng":-73.92851,"starts":859},"5093.01":{"name":"Bedford Ave & S 9 St","lat":40.70853074,"lng":-73.96408963,"starts":1407},"5096.12":{"name":"Peck Slip & South St","lat":40.7075188831,"lng":-74.0010805428,"starts":3957},"5097.02":{"name":"60 Pl & Linden St","lat":40.70886,"lng":-73.90182,"starts":491},"5099.02":{"name":"Waterbury St & Stagg St","lat":40.71019,"lng":-73.93734,"starts":1692},"5099.03":{"name":"White St & Johnson Ave","lat":40.707174,"lng":-73.93581,"starts":305},"5105.01":{"name":"Liberty St & Broadway","lat":40.70905623,"lng":-74.01043382,"starts":5795},"5105.09":{"name":"Liberty St & Nassau St","lat":40.70858894,"lng":-74.00935482,"starts":1699},"5106.04":{"name":"Greene Ave & Grandview Ave","lat":40.709697,"lng":-73.907856,"starts":865},"5108.01":{"name":"Scholes St & Manhattan Ave","lat":40.7087036752,"lng":-73.944862466,"starts":4521},"5114.06":{"name":"West Thames St","lat":40.70834698,"lng":-74.01713445,"starts":4277},"5114.08":{"name":"South End Ave & Albany St","lat":40.709957,"lng":-74.016538,"starts":4280},"5115.01":{"name":"Onderdonk Ave & Dekalb Ave","lat":40.70863,"lng":-73.91497,"starts":784},"5115.05":{"name":"Willoughby Ave & Onderdonk Ave","lat":40.7098,"lng":-73.91727,"starts":688},"5117.05":{"name":"Stagg St & Union Ave","lat":40.70877084,"lng":-73.95095259,"starts":222},"5123.07":{"name":"Stewart Ave & Johnson Ave","lat":40.70869,"lng":-73.92587,"starts":767},"5125.03":{"name":"S 5 Pl & S 5 St","lat":40.710451,"lng":-73.960876,"starts":3685},"5125.07":{"name":"Broadway & Roebling St","lat":40.7092482628,"lng":-73.9606314898,"starts":3057},"5128.04":{"name":"Catherine St & Monroe St","lat":40.71117444,"lng":-73.99682619,"starts":2362},"5129.01":{"name":"Palmetto St & Traffic Ave","lat":40.70929,"lng":-73.89441,"starts":237},"5134.09":{"name":"Broadway & Kent Ave","lat":40.710888,"lng":-73.968329,"starts":6727},"5137.1":{"name":"Spruce St & Nassau St","lat":40.71146364,"lng":-74.00552427,"starts":469},"5137.10":{"name":"Spruce St & Nassau St","lat":40.71146364,"lng":-74.00552427,"starts":3464},"5137.11":{"name":"Fulton St & William St","lat":40.7096008936,"lng":-74.0065509081,"starts":5320},"5137.12":{"name":"Gold St & Frankfort St","lat":40.71069995,"lng":-74.00354147,"starts":1290},"5138.03":{"name":"60 Pl & Bleecker St","lat":40.71107,"lng":-73.903,"starts":375},"5140.06":{"name":"Bushwick Ave & Stagg St","lat":40.709897,"lng":-73.94008,"starts":888},"5145.02":{"name":"Albany St & Greenwich St","lat":40.709267,"lng":-74.013247,"starts":3278},"5146.03":{"name":"Stanhope St & Fairview Ave","lat":40.70998,"lng":-73.91116,"starts":697},"5148.03":{"name":"Leonard St & Maujer St","lat":40.7103685424,"lng":-73.9470595121,"starts":760},"5156.05":{"name":"S 4 St & Rodney St","lat":40.70934,"lng":-73.95608,"starts":3801},"5159.04":{"name":"Pike St & Monroe St","lat":40.71173107,"lng":-73.99193043,"starts":2164},"5159.07":{"name":"South St & Pike St","lat":40.7099180692,"lng":-73.9916110039,"starts":2441},"5160.01":{"name":"Metropolitan Ave & 65 Ln","lat":40.71225,"lng":-73.89111,"starts":291},"5164.05":{"name":"Broadway & Berry St","lat":40.7103612992,"lng":-73.9653038979,"starts":4714},"5167.06":{"name":"St James Pl & Pearl St","lat":40.71117416,"lng":-74.00016545,"starts":1473},"5168.04":{"name":"Grove St & Fresh Pond Rd","lat":40.71032,"lng":-73.89955,"starts":517},"5170.01":{"name":"Stagg St & Morgan Ave","lat":40.710681,"lng":-73.93372,"starts":1244},"5175.08":{"name":"Fulton St & Broadway","lat":40.711066,"lng":-74.009447,"starts":5355},"5176.04":{"name":"Bleecker St & Forest Ave","lat":40.7107,"lng":-73.90525,"starts":517},"5178.06":{"name":"Graham Ave & Grand St","lat":40.711863,"lng":-73.944024,"starts":4611},"5181.04":{"name":"Cherry St","lat":40.71219906,"lng":-73.97948148,"starts":1927},"5184.08":{"name":"West St & Liberty St","lat":40.711444,"lng":-74.014847,"starts":11684},"5187.03":{"name":"Hope St & Union Ave","lat":40.71167351,"lng":-73.95141312,"starts":6664},"5190.07":{"name":"Madison St & Clinton St","lat":40.71269042,"lng":-73.98776323,"starts":1695},"5190.09":{"name":"Clinton St & Cherry St","lat":40.7114713945,"lng":-73.9867260307,"starts":3452},"5195.06":{"name":"S 4 St & Roebling St","lat":40.710709,"lng":-73.959724,"starts":5820},"5198.04":{"name":"Market St & Cherry St","lat":40.71076228,"lng":-73.99400398,"starts":2028},"5199.01":{"name":"65 Ln & Metropolitan Ave","lat":40.7123,"lng":-73.89397,"starts":234},"5204.05":{"name":"S 4 St & Wythe Ave","lat":40.71285887,"lng":-73.96590294,"starts":8329},"5207.01":{"name":"Centre St & Chambers St","lat":40.71273266,"lng":-74.0046073,"starts":8397},"5210.01":{"name":"Powers St & Olive St","lat":40.71323,"lng":-73.93894,"starts":2115},"5216.04":{"name":"Barclay St & Church St","lat":40.71291224,"lng":-74.01020234,"starts":1978},"5216.06":{"name":"Vesey St & Church St","lat":40.7122195801,"lng":-74.0104722977,"starts":8962},"5217.03":{"name":"Amory Ct & Metropolitan Ave","lat":40.71301,"lng":-73.90968,"starts":486},"5219.05":{"name":"Manhattan Ave & Devoe St","lat":40.713532,"lng":-73.9459867,"starts":2650},"5225.02":{"name":"Flushing Ave & Woodward Ave","lat":40.71246,"lng":-73.91873,"starts":849},"5225.09":{"name":"Woodward Ave & Starr St","lat":40.71147,"lng":-73.91694,"starts":636},"5230.02":{"name":"Rutgers St & Henry St","lat":40.7133215121,"lng":-73.9900968969,"starts":2710},"5235.05":{"name":"S 3 St & Bedford Ave","lat":40.71260486,"lng":-73.96264403,"starts":7018},"5235.1":{"name":"Driggs Ave & S 2 St","lat":40.712628,"lng":-73.960575,"starts":276},"5235.10":{"name":"Driggs Ave & S 2 St","lat":40.712628,"lng":-73.960575,"starts":3754},"5238.05":{"name":"St James Pl & Oliver St","lat":40.71307916,"lng":-73.99851193,"starts":3601},"5241.02":{"name":"Metropolitan Ave & Vandervoort Ave","lat":40.71429,"lng":-73.93323,"starts":479},"5247.1":{"name":"Reade St & Broadway","lat":40.71450451,"lng":-74.00562789,"starts":274},"5247.10":{"name":"Reade St & Broadway","lat":40.71450451,"lng":-74.00562789,"starts":2942},"5248.05":{"name":"Eliot Ave & 60 Ln","lat":40.71391,"lng":-73.90299,"starts":207},"5250.05":{"name":"Bushwick Ave & Powers St","lat":40.71247661,"lng":-73.94100005,"starts":2824},"5257.01":{"name":"53 St & Flushing Ave","lat":40.71435,"lng":-73.91405,"starts":705},"5259.06":{"name":"Devoe St & Lorimer St","lat":40.7133522622,"lng":-73.9491033554,"starts":4187},"5262.09":{"name":"Madison St & Montgomery St","lat":40.713126,"lng":-73.984844,"starts":2792},"5267.08":{"name":"Grand St & Havemeyer St","lat":40.71286844,"lng":-73.95698119,"starts":5336},"5267.09":{"name":"Roebling St & N 4 St","lat":40.71469,"lng":-73.95739,"starts":4396},"5270.05":{"name":"Pike St & E Broadway","lat":40.71406667,"lng":-73.99293911,"starts":3753},"5270.07":{"name":"Forsyth St & Canal St","lat":40.7158155,"lng":-73.99422366,"starts":4723},"5270.09":{"name":"Market St & Henry St","lat":40.7131070231,"lng":-73.9944635332,"starts":4606},"5273.01":{"name":"Metropolitan Ave & Stewart Ave","lat":40.71401,"lng":-73.92793,"starts":524},"5279.03":{"name":"Centre St & Worth St","lat":40.7149479652,"lng":-74.0023448998,"starts":5795},"5280.03":{"name":"Fresh Pond Rd & Eliot Ave","lat":40.71442,"lng":-73.90097,"starts":442},"5282.02":{"name":"Devoe St & Morgan Ave","lat":40.713811,"lng":-73.93515,"starts":1319},"5288.08":{"name":"Park Pl & Church St","lat":40.7133418428,"lng":-74.0093551576,"starts":2930},"5288.09":{"name":"Warren St & W Broadway","lat":40.71473993,"lng":-74.00910627,"starts":4066},"5288.12":{"name":"Murray St & Greenwich St","lat":40.7148515053,"lng":-74.0112233162,"starts":4661},"5289.05":{"name":"56 St & Arnold Ave","lat":40.71484,"lng":-73.909,"starts":198},"5291.05":{"name":"Graham Ave & Conselyea St","lat":40.715143,"lng":-73.944507,"starts":6309},"5294.04":{"name":"Henry St & Grand St","lat":40.714211,"lng":-73.981095,"starts":6547},"5297.02":{"name":"Vesey Pl & River Terrace","lat":40.7153379,"lng":-74.01658354,"starts":9509},"5300.05":{"name":"Metropolitan Ave & Meeker Ave","lat":40.71413311,"lng":-73.95234386,"starts":4444},"5300.06":{"name":"Union Ave & Jackson St","lat":40.7160751,"lng":-73.952029,"starts":2290},"5303.06":{"name":"Clinton St & Grand St","lat":40.71559509,"lng":-73.9870295,"starts":9029},"5303.08":{"name":"Canal St & Rutgers St","lat":40.71427487,"lng":-73.98990025,"starts":10040},"5308.04":{"name":"Metropolitan Ave & Bedford Ave","lat":40.71534825,"lng":-73.96024116,"starts":11874},"5311.08":{"name":"Division St & Bowery","lat":40.71419,"lng":-73.99673,"starts":4032},"5321.08":{"name":"60 Ave & Fresh Pond Rd","lat":40.71693,"lng":-73.90198,"starts":187},"5326.06":{"name":"Stanton St & Mangin St","lat":40.71782143,"lng":-73.97628939,"starts":1401},"5329.03":{"name":"West St & Chambers St","lat":40.71754834,"lng":-74.01322069,"starts":14513},"5329.08":{"name":"Murray St & West St","lat":40.71503,"lng":-74.01246,"starts":4044},"5332.1":{"name":"Jackson St & Leonard St","lat":40.7163803197,"lng":-73.948212862,"starts":158},"5332.10":{"name":"Jackson St & Leonard St","lat":40.7163803197,"lng":-73.948212862,"starts":1283},"5335.03":{"name":"Bialystoker Pl & Delancey St","lat":40.71622644,"lng":-73.98261206,"starts":2049},"5335.07":{"name":"Grand St & Samuel Dickstein Plaza","lat":40.71511872,"lng":-73.9841705561,"starts":4242},"5340.01":{"name":"N 7 St & Driggs Ave","lat":40.716967,"lng":-73.956388,"starts":9544},"5343.1":{"name":"Allen St & Hester St","lat":40.71606,"lng":-73.99191,"starts":621},"5343.10":{"name":"Allen St & Hester St","lat":40.71606,"lng":-73.99191,"starts":5238},"5343.11":{"name":"Orchard St & Grand St","lat":40.7173184039,"lng":-73.9906775951,"starts":6951},"5348.02":{"name":"Wythe Ave & Metropolitan Ave","lat":40.716887,"lng":-73.963198,"starts":8193},"5351.03":{"name":"Bayard St & Baxter St","lat":40.71602118,"lng":-73.99974372,"starts":5488},"5351.07":{"name":"Walker St & Baxter St","lat":40.717411,"lng":-73.999573,"starts":4561},"5354.01":{"name":"Morgan Ave & Maspeth Ave","lat":40.716657,"lng":-73.93637,"starts":1340},"5359.1":{"name":"Hudson St & Reade St","lat":40.71625008,"lng":-74.0091059,"starts":241},"5359.10":{"name":"Hudson St & Reade St","lat":40.71625008,"lng":-74.0091059,"starts":3538},"5359.11":{"name":"Leonard St & Church St","lat":40.717571,"lng":-74.005549,"starts":3734},"5359.12":{"name":"Duane St & Hudson St","lat":40.71703,"lng":-74.00925,"starts":2728},"5359.13":{"name":"Church St & Worth St","lat":40.716885385,"lng":-74.0065012872,"starts":2712},"5360.02":{"name":"60 St & 60 Rd","lat":40.7159223271,"lng":-73.9060136676,"starts":268},"5362.08":{"name":"Withers St & Kingsland Ave","lat":40.71773,"lng":-73.94051,"starts":1252},"5365.02":{"name":"Columbia St & Rivington St","lat":40.71739973,"lng":-73.98016555,"starts":2466},"5368.03":{"name":"River Ter & Warren St","lat":40.7175989498,"lng":-74.015879631,"starts":5400},"5369.01":{"name":"Grand Ave & 55 St","lat":40.71888,"lng":-73.91427,"starts":257},"5371.07":{"name":"Frost St & Meeker Ave","lat":40.7176619708,"lng":-73.9488002658,"starts":2421},"5374.01":{"name":"Norfolk St & Broome St","lat":40.7172274,"lng":-73.98802084,"starts":8819},"5379.09":{"name":"Berry St & N 8 St","lat":40.7190095,"lng":-73.95852515,"starts":6488},"5379.1":{"name":"N 6 St & Bedford Ave","lat":40.71745169,"lng":-73.95850939,"starts":764},"5379.10":{"name":"N 6 St & Bedford Ave","lat":40.71745169,"lng":-73.95850939,"starts":7121},"5382.06":{"name":"Grand St & Elizabeth St","lat":40.718822,"lng":-73.99596,"starts":8723},"5382.07":{"name":"Forsyth St & Grand St","lat":40.7177981774,"lng":-73.9931613207,"starts":8030},"5388.01":{"name":"Kent Ave & Grand St","lat":40.716425,"lng":-73.96594,"starts":9133},"5391.06":{"name":"Lispenard St & Broadway","lat":40.71939226,"lng":-74.00247214,"starts":4838},"5392.04":{"name":"63 St & 59 Dr","lat":40.71832,"lng":-73.90128,"starts":115},"5400.05":{"name":"Harrison St & Hudson St","lat":40.71870987,"lng":-74.0090009,"starts":2676},"5401.03":{"name":"59 St & 59 Rd","lat":40.7179085273,"lng":-73.9084544778,"starts":78},"5403.04":{"name":"Graham Ave & Withers St","lat":40.7169811167,"lng":-73.9448591677,"starts":2892},"5403.05":{"name":"Graham Ave & Herbert St","lat":40.71929301,"lng":-73.94500379,"starts":1725},"5406.02":{"name":"Rivington St & Ridge St","lat":40.71850211,"lng":-73.98329859,"starts":5427},"5406.04":{"name":"Pitt St & Stanton St","lat":40.71926081,"lng":-73.98178024,"starts":2017},"5409.02":{"name":"Page Pl & Grand Ave","lat":40.71798,"lng":-73.91818,"starts":192},"5411.07":{"name":"Union Ave & N 12 St","lat":40.71924,"lng":-73.95242,"starts":5076},"5411.08":{"name":"Driggs Ave & N 9 St","lat":40.7181696945,"lng":-73.9552013576,"starts":5106},"5414.06":{"name":"Allen St & Rivington St","lat":40.72019576,"lng":-73.98997825,"starts":7518},"5414.07":{"name":"Delancey St & Eldridge St","lat":40.719383,"lng":-73.991479,"starts":2744},"5419.04":{"name":"N 5 St & Wythe Ave","lat":40.718389,"lng":-73.961501,"starts":4987},"5422.04":{"name":"Howard St & Lafayette St","lat":40.71910537,"lng":-73.99973337,"starts":5205},"5422.09":{"name":"Lafayette St & Grand St","lat":40.72028,"lng":-73.99879,"starts":6504},"5430.08":{"name":"Franklin St & W Broadway","lat":40.71911552,"lng":-74.00666661,"starts":2941},"5430.1":{"name":"6 Ave & Walker St","lat":40.7197920901,"lng":-74.0052238852,"starts":317},"5430.10":{"name":"6 Ave & Walker St","lat":40.7197920901,"lng":-74.0052238852,"starts":3058},"5431.01":{"name":"60 Pl & Flushing Ave","lat":40.71988,"lng":-73.90556,"starts":123},"5433.03":{"name":"Richardson St & N Henry St","lat":40.7190789118,"lng":-73.9422369003,"starts":1971},"5433.04":{"name":"Frost St & Debevoise Ave","lat":40.71882,"lng":-73.93948,"starts":407},"5436.09":{"name":"Ave D & E 3 St","lat":40.72082834,"lng":-73.97793172,"starts":3424},"5436.11":{"name":"E Houston St & Columbia St","lat":40.7197863545,"lng":-73.978716284,"starts":2652},"5440.05":{"name":"57 St & Grand Ave","lat":40.71921,"lng":-73.9124,"starts":154},"5442.05":{"name":"Bayard St & Leonard St","lat":40.719155717,"lng":-73.94885391,"starts":3689},"5442.09":{"name":"Manhattan Ave & Leonard St","lat":40.72084,"lng":-73.94844,"starts":1989},"5445.02":{"name":"Suffolk St & Stanton St","lat":40.72066442,"lng":-73.98517977,"starts":7684},"5445.07":{"name":"Stanton St & Norfolk St","lat":40.720747,"lng":-73.986274,"starts":5750},"5450.01":{"name":"N 10 St & Berry St","lat":40.720253,"lng":-73.957082,"starts":4104},"5450.04":{"name":"N 12 St & Bedford Ave","lat":40.72079821,"lng":-73.95484712,"starts":5846},"5453.01":{"name":"Rivington St & Chrystie St","lat":40.72110063,"lng":-73.9919254,"starts":5461},"5453.05":{"name":"Forsyth St & Broome St","lat":40.71893904,"lng":-73.99266288,"starts":4001},"5453.06":{"name":"Kenmare St & Elizabeth St","lat":40.72054,"lng":-73.9949,"starts":5697},"5458.02":{"name":"N 5 St & Northside Piers","lat":40.719876,"lng":-73.963865,"starts":6194},"5470.02":{"name":"N Moore St & Hudson St","lat":40.7199611812,"lng":-74.0084432065,"starts":2696},"5470.1":{"name":"Greenwich St & Hubert St","lat":40.721319,"lng":-74.010065,"starts":243},"5470.10":{"name":"Greenwich St & Hubert St","lat":40.721319,"lng":-74.010065,"starts":3897},"5470.12":{"name":"North Moore St & Greenwich St","lat":40.7201952144,"lng":-74.0103006363,"starts":7650},"5471.04":{"name":"Grand Ave & 58 Ave","lat":40.72098,"lng":-73.90701,"starts":127},"5473.03":{"name":"Engert Ave & McGuinness Blvd","lat":40.72158,"lng":-73.94546,"starts":1613},"5473.06":{"name":"Monitor St & Meeker Ave","lat":40.721226,"lng":-73.941845,"starts":1288},"5476.03":{"name":"E 2 St & Ave C","lat":40.7208736,"lng":-73.98085795,"starts":6213},"5481.04":{"name":"Driggs Ave & Lorimer St","lat":40.72179134,"lng":-73.9504154,"starts":4269},"5484.09":{"name":"Allen St & Stanton St","lat":40.722055,"lng":-73.989111,"starts":7836},"5489.03":{"name":"Kent Ave & N 7 St","lat":40.720367753,"lng":-73.9616507292,"starts":6248},"5489.04":{"name":"N 11 St & Kent Ave","lat":40.7224818864,"lng":-73.9592193067,"starts":2098},"5489.06":{"name":"N 9 St & Wythe Ave","lat":40.72054,"lng":-73.959,"starts":3347},"5492.05":{"name":"Cleveland Pl & Spring St","lat":40.7221038568,"lng":-73.9972489827,"starts":11985},"5500.02":{"name":"Grand St & Greene St","lat":40.7217000524,"lng":-74.0023814142,"starts":5876},"5500.07":{"name":"6 Ave & Canal St","lat":40.72243797,"lng":-74.00566443,"starts":3419},"5501.06":{"name":"Fresh Pond Rd & Flushing Ave","lat":40.72155,"lng":-73.90295,"starts":169},"5503.01":{"name":"Morgan Ave & Lombardy St","lat":40.72226,"lng":-73.93889,"starts":1310},"5506.1":{"name":"Ave D & E 8 St","lat":40.72368361,"lng":-73.97574813,"starts":238},"5506.10":{"name":"Ave D & E 8 St","lat":40.72368361,"lng":-73.97574813,"starts":2015},"5506.14":{"name":"E 6 St & Ave D","lat":40.72228087,"lng":-73.97668709,"starts":4808},"5509.02":{"name":"Washington St & Laight St","lat":40.72231,"lng":-74.0106,"starts":3188},"5510.02":{"name":"57 Rd & 59 St","lat":40.72249,"lng":-73.90854,"starts":92},"5510.05":{"name":"57 Rd & 58 St","lat":40.72235,"lng":-73.91215,"starts":76},"5515.02":{"name":"E 2 St & Ave B","lat":40.72217444,"lng":-73.98368779,"starts":7192},"5515.08":{"name":"E 4 St & Ave B","lat":40.7233468322,"lng":-73.9826591313,"starts":4986},"5520.09":{"name":"N 15 St & Wythe Ave","lat":40.724055,"lng":-73.955736,"starts":3538},"5523.02":{"name":"Stanton St & Chrystie St","lat":40.72229346,"lng":-73.99147535,"starts":5573},"5532.01":{"name":"Mercer St & Spring St","lat":40.72362738,"lng":-73.99949601,"starts":4993},"5539.06":{"name":"Laight St & Hudson St","lat":40.72185379,"lng":-74.00771779,"starts":1425},"5540.06":{"name":"56 Dr & 61 St","lat":40.72368,"lng":-73.90458,"starts":119},"5542.04":{"name":"Driggs Ave & N Henry St","lat":40.72325,"lng":-73.94308,"starts":4240},"5545.01":{"name":"E 7 St & Ave C","lat":40.7241294409,"lng":-73.9790126681,"starts":5525},"5545.04":{"name":"E 5 St & Ave C","lat":40.72299208,"lng":-73.97995466,"starts":3847},"5548.01":{"name":"58 St & 56 Dr","lat":40.72419,"lng":-73.91244,"starts":230},"5550.05":{"name":"Bedford Ave & Nassau Ave","lat":40.72311651,"lng":-73.95212324,"starts":7186},"5550.09":{"name":"Leonard St & Nassau Ave","lat":40.723956785,"lng":-73.9498436451,"starts":3509},"5553.03":{"name":"E 3 St & 1 Ave","lat":40.72467721,"lng":-73.98783413,"starts":4614},"5553.1":{"name":"E 2 St & Ave A","lat":40.7230774907,"lng":-73.9858362079,"starts":816},"5553.10":{"name":"E 2 St & Ave A","lat":40.7230774907,"lng":-73.9858362079,"starts":5189},"5558.04":{"name":"Wythe Ave & N 13 St","lat":40.722767,"lng":-73.957021,"starts":3794},"5561.04":{"name":"Mott St & Prince St","lat":40.72317958,"lng":-73.99480012,"starts":7466},"5561.06":{"name":"Lafayette St & Jersey St","lat":40.724560925,"lng":-73.9956529109,"starts":9912},"5569.06":{"name":"W Broadway & Spring St","lat":40.7249467236,"lng":-74.0016585588,"starts":5305},"5570.04":{"name":"Grand Ave & Remsen Pl","lat":40.72353,"lng":-73.89967,"starts":417},"5572.07":{"name":"Van Dam St & Meeker Ave","lat":40.72532,"lng":-73.9368,"starts":883},"5575.08":{"name":"Ave D & E 12 St","lat":40.72580614,"lng":-73.97422494,"starts":961},"5575.13":{"name":"Ave D & E 10 St","lat":40.7250655102,"lng":-73.9751583338,"starts":1735},"5578.02":{"name":"Watts St & Greenwich St","lat":40.72405549,"lng":-74.00965965,"starts":4379},"5579.02":{"name":"56 Dr & 59 St","lat":40.72403,"lng":-73.90853,"starts":189},"5579.04":{"name":"55 Dr & Maurice Ave","lat":40.7261,"lng":-73.90917,"starts":388},"5581.01":{"name":"Nassau Ave & Russell St","lat":40.72557,"lng":-73.94434,"starts":3919},"5584.04":{"name":"E 6 St & Ave B","lat":40.72453734,"lng":-73.98185424,"starts":4628},"5584.05":{"name":"E 7 St & Ave B","lat":40.7251285241,"lng":-73.9813166857,"starts":5820},"5593.01":{"name":"E 1 St & 1 Ave","lat":40.7233559796,"lng":-73.9886498451,"starts":8069},"5593.02":{"name":"E 2 St & 2 Ave","lat":40.72502876,"lng":-73.99069656,"starts":3749},"5593.04":{"name":"E 4 St & 2 Ave","lat":40.7262807,"lng":-73.98978041,"starts":5626},"5602.06":{"name":"Greene St & Prince St","lat":40.7251173442,"lng":-73.9993049204,"starts":4197},"5610.09":{"name":"6 Ave & Broome St","lat":40.72431,"lng":-74.00473,"starts":6769},"5611.04":{"name":"61 St & Borden Ave","lat":40.72558,"lng":-73.90417,"starts":84},"5611.05":{"name":"63 St & Borden Ave","lat":40.72655,"lng":-73.90321,"starts":163},"5613.04":{"name":"Kingsland Ave & Nassau Ave","lat":40.72577,"lng":-73.94173,"starts":3252},"5616.01":{"name":"E 9 St & Ave C","lat":40.72521311,"lng":-73.97768752,"starts":4483},"5616.08":{"name":"E 12 St & Ave C","lat":40.727243,"lng":-73.976831,"starts":2939},"5623.03":{"name":"Nassau Ave & Newell St","lat":40.7248125644,"lng":-73.9475262165,"starts":3232},"5626.06":{"name":"E 5 St & Ave A","lat":40.7247900775,"lng":-73.9843006432,"starts":4872},"5626.07":{"name":"E 7 St & Ave A","lat":40.72621788,"lng":-73.98379855,"starts":7576},"5626.13":{"name":"St Marks Pl & 1 Ave","lat":40.72779126,"lng":-73.98564945,"starts":6536},"5626.15":{"name":"1 Ave & E 6 St","lat":40.7263308597,"lng":-73.9861688018,"starts":7113},"5633.04":{"name":"Banker St & Meserole Ave","lat":40.72606,"lng":-73.95621,"starts":2237},"5636.11":{"name":"Great Jones St","lat":40.72743423,"lng":-73.99379025,"starts":7950},"5636.13":{"name":"E 1 St & Bowery","lat":40.7248612225,"lng":-73.9921313524,"starts":5555},"5644.05":{"name":"W Broadway & W Houston St","lat":40.726378,"lng":-74.000472,"starts":3474},"5653.12":{"name":"Spring St & Hudson St","lat":40.7258399679,"lng":-74.007653296,"starts":5706},"5656.03":{"name":"N Henry St & Norman Ave","lat":40.7277,"lng":-73.94395,"starts":1345},"5659.05":{"name":"E 10 St & Ave A","lat":40.72740794,"lng":-73.98142006,"starts":7143},"5659.11":{"name":"E 11 St & Ave B","lat":40.7274642069,"lng":-73.9795041829,"starts":5176},"5666.04":{"name":"Meserole Ave & Manhattan Ave","lat":40.72708584,"lng":-73.95299117,"starts":4424},"5666.11":{"name":"Norman Ave & Leonard St","lat":40.725819,"lng":-73.950815,"starts":3899},"5669.1":{"name":"St Marks Pl & 2 Ave","lat":40.7284186,"lng":-73.98713956,"starts":632},"5669.10":{"name":"St Marks Pl & 2 Ave","lat":40.7284186,"lng":-73.98713956,"starts":6281},"5669.12":{"name":"E 6 St & 2 Ave","lat":40.7273786932,"lng":-73.9884084463,"starts":2625},"5676.04":{"name":"Calyer St & West St","lat":40.72693,"lng":-73.95863,"starts":5336},"5679.05":{"name":"Mercer St & Bleecker St","lat":40.7270636335,"lng":-73.9966213703,"starts":6118},"5679.08":{"name":"Bleecker St & Crosby St","lat":40.7261560526,"lng":-73.9951019018,"starts":9292},"5687.04":{"name":"MacDougal St & Prince St","lat":40.72710258,"lng":-74.00297088,"starts":7086},"5687.11":{"name":"King St & Varick St","lat":40.7278970141,"lng":-74.0053626895,"starts":4818},"5688.02":{"name":"64 St & 53 Dr","lat":40.72897,"lng":-73.90115,"starts":182},"5696.03":{"name":"Pier 40 - Hudson River Park","lat":40.7277140778,"lng":-74.0112957358,"starts":9639},"5703.13":{"name":"Ave A & E 11 St","lat":40.7285474502,"lng":-73.9817592502,"starts":5937},"5709.04":{"name":"Lorimer St & Calyer St","lat":40.72795,"lng":-73.95414,"starts":2745},"5712.03":{"name":"Cooper Square & Astor Pl","lat":40.7295149622,"lng":-73.990752697,"starts":7474},"5712.12":{"name":"E 5 St & Cooper Sq","lat":40.72769,"lng":-73.990993,"starts":4697},"5721.01":{"name":"Sullivan St & Washington Sq","lat":40.73047747,"lng":-73.99906065,"starts":5935},"5721.07":{"name":"Thompson St & Bleecker St","lat":40.7284005945,"lng":-73.9996878058,"starts":6663},"5721.14":{"name":"LaGuardia Pl & W 3 St","lat":40.72917025,"lng":-73.99810231,"starts":5615},"5730.08":{"name":"Greenwich St & W Houston St","lat":40.728846,"lng":-74.008591,"starts":6264},"5731.03":{"name":"Maurice Ave & 53 Dr","lat":40.73028,"lng":-73.90421,"starts":107},"5736.09":{"name":"E 14 St & Ave B","lat":40.72938685,"lng":-73.97772429,"starts":4721},"5743.02":{"name":"Calyer St & Jewel St","lat":40.72984,"lng":-73.94839,"starts":1711},"5746.02":{"name":"E 10 St & 2 Ave","lat":40.7297080564,"lng":-73.9865979552,"starts":7353},"5746.14":{"name":"E 11 St & 1 Ave","lat":40.72953837,"lng":-73.98426726,"starts":6279},"5752.07":{"name":"Milton St & Franklin St","lat":40.72906,"lng":-73.95779,"starts":5120},"5752.09":{"name":"Greenpoint Ave & West St","lat":40.729803,"lng":-73.959099,"starts":5401},"5755.01":{"name":"Washington Pl & Broadway","lat":40.72903917,"lng":-73.99404649,"starts":4263},"5755.14":{"name":"University Pl & E 8 St","lat":40.7314372409,"lng":-73.9949034154,"starts":4848},"5755.15":{"name":"Washington Pl & Greene St","lat":40.7298061918,"lng":-73.9954638092,"starts":2590},"5763.03":{"name":"Carmine St & 6 Ave","lat":40.73038599,"lng":-74.00214988,"starts":10064},"5764.02":{"name":"65 Pl & 53 Ave","lat":40.73145,"lng":-73.90022,"starts":266},"5769.06":{"name":"Ave C & E 16 St","lat":40.7298483035,"lng":-73.9745521545,"starts":2615},"5772.05":{"name":"Morton St & Washington St","lat":40.73115,"lng":-74.00887,"starts":5227},"5779.08":{"name":"1 Ave & E 16 St","lat":40.73221853,"lng":-73.98165557,"starts":6722},"5779.09":{"name":"E 13 St & Ave A","lat":40.7296672939,"lng":-73.980679661,"starts":4124},"5779.1":{"name":"E 14 St & 1 Ave","lat":40.7313930336,"lng":-73.9828670025,"starts":923},"5779.10":{"name":"E 14 St & 1 Ave","lat":40.7313930336,"lng":-73.9828670025,"starts":6291},"5779.11":{"name":"Ave A & E 14 St","lat":40.73031071,"lng":-73.9804717898,"starts":10346},"5785.05":{"name":"Greenpoint Ave & Manhattan Ave","lat":40.73026,"lng":-73.95394,"starts":4483},"5785.1":{"name":"Kent St & McGuinness Blvd","lat":40.73124,"lng":-73.95161,"starts":158},"5785.10":{"name":"Kent St & McGuinness Blvd","lat":40.73124,"lng":-73.95161,"starts":1021},"5788.12":{"name":"E 12 St & 3 Ave","lat":40.73223272,"lng":-73.98889957,"starts":3676},"5788.13":{"name":"Lafayette St & E 8 St","lat":40.7302066053,"lng":-73.9910262823,"starts":15610},"5788.15":{"name":"4 Ave & E 12 St","lat":40.732647,"lng":-73.99011,"starts":7451},"5788.16":{"name":"E 11 St & 3 Ave","lat":40.73127,"lng":-73.98849,"starts":4263},"5794.05":{"name":"India St Pier","lat":40.7317347859,"lng":-73.9612390103,"starts":3827},"5797.01":{"name":"MacDougal St & Washington Sq","lat":40.73226398,"lng":-73.99852205,"starts":4463},"5805.05":{"name":"Barrow St & Hudson St","lat":40.73172428,"lng":-74.00674436,"starts":4872},"5805.07":{"name":"7 Ave S & Bleecker St","lat":40.7321389629,"lng":-74.0036380291,"starts":7858},"5806.01":{"name":"53 Ave & 62 St","lat":40.73169,"lng":-73.90159,"starts":252},"5820.08":{"name":"E 13 St & 2 Ave","lat":40.7315393746,"lng":-73.9853024483,"starts":7440},"5826.02":{"name":"India St & Manhattan Ave","lat":40.73232194,"lng":-73.9550858,"starts":5565},"5829.12":{"name":"E 11 St & Broadway","lat":40.73261787,"lng":-73.99158043,"starts":3265},"5838.09":{"name":"Washington Pl & 6 Ave","lat":40.73224119,"lng":-74.00026394,"starts":4709},"5845.02":{"name":"Woodhaven Blvd & Hoffman Dr","lat":40.73303,"lng":-73.871,"starts":823},"5847.01":{"name":"Christopher St & Greenwich St","lat":40.73291553,"lng":-74.00711384,"starts":9704},"5847.06":{"name":"W 10 St & Washington St","lat":40.7334239944,"lng":-74.0085149556,"starts":4080},"5847.08":{"name":"Washington St & Barrow St","lat":40.7319113232,"lng":-74.0087690949,"starts":3806},"5851.01":{"name":"Greenpoint Ave & Monitor St","lat":40.73224,"lng":-73.94383,"starts":517},"5854.09":{"name":"1 Ave & E 18 St","lat":40.733812192,"lng":-73.9805442095,"starts":7324},"5854.1":{"name":"Stuyvesant Walk & 1 Ave Loop","lat":40.7323397772,"lng":-73.9789838344,"starts":40},"5854.10":{"name":"Stuyvesant Walk & 1 Ave Loop","lat":40.7323397772,"lng":-73.9789838344,"starts":488},"5860.02":{"name":"Green St & McGuinness Blvd","lat":40.73396,"lng":-73.95204,"starts":1079},"5863.07":{"name":"E 15 St & 3 Ave","lat":40.734232,"lng":-73.986923,"starts":6483},"5869.04":{"name":"Huron St & Franklin St","lat":40.73266,"lng":-73.95826,"starts":5500},"5872.1":{"name":"E 9 St & 5 Ave","lat":40.7327588705,"lng":-73.9958167076,"starts":574},"5872.10":{"name":"E 9 St & 5 Ave","lat":40.7327588705,"lng":-73.9958167076,"starts":4879},"5878.02":{"name":"60 Ave & Junction Blvd","lat":40.73466,"lng":-73.86501,"starts":458},"5880.02":{"name":"W 4 St & 7 Ave S","lat":40.73401143,"lng":-74.00293877,"starts":9222},"5881.01":{"name":"Tyler Ave & Maurice Ave","lat":40.73394,"lng":-73.90128,"starts":176},"5883.06":{"name":"Van Dam St & Greenpoint Ave","lat":40.7344356407,"lng":-73.937907815,"starts":465},"5886.13":{"name":"E 20 St & FDR Dr","lat":40.7332086265,"lng":-73.9756813647,"starts":6840},"5887.03":{"name":"Queens Blvd & 56 Ave","lat":40.73481,"lng":-73.87431,"starts":736},"5896.01":{"name":"E 17 St & 2 Ave","lat":40.7343116628,"lng":-73.9837253094,"starts":4057},"5902.07":{"name":"Eagle St & Manhattan Ave","lat":40.735217,"lng":-73.954926,"starts":3896},"5905.12":{"name":"Broadway & E 14 St","lat":40.73454567,"lng":-73.99074142,"starts":13391},"5905.14":{"name":"University Pl & E 14 St","lat":40.734814,"lng":-73.992085,"starts":13115},"5914.03":{"name":"W 11 St & 6 Ave","lat":40.73532427,"lng":-73.99800419,"starts":4484},"5914.08":{"name":"Greenwich Ave & Charles St","lat":40.735238,"lng":-74.000271,"starts":5696},"5917.02":{"name":"Bradley Ave & Greenpoint Ave","lat":40.7356591482,"lng":-73.9347884059,"starts":317},"5922.04":{"name":"Greenwich St & Perry St","lat":40.73498,"lng":-74.00697,"starts":4795},"5922.07":{"name":"Perry St & Bleecker St","lat":40.73535398,"lng":-74.00483091,"starts":6312},"5922.08":{"name":"Bank St & Hudson St","lat":40.73652889,"lng":-74.00618026,"starts":3246},"5923.02":{"name":"51 Ave & 61 St","lat":40.73568,"lng":-73.90387,"starts":235},"5929.01":{"name":"E 23 St & 1 Ave","lat":40.736502,"lng":-73.97809472,"starts":5711},"5930.02":{"name":"Queens Blvd & Broadway","lat":40.73672,"lng":-73.87728,"starts":694},"5938.01":{"name":"E 19 St & 3 Ave","lat":40.73624527,"lng":-73.98473765,"starts":3891},"5938.11":{"name":"E 16 St & Irving Pl","lat":40.7353670556,"lng":-73.9879739285,"starts":5791},"5944.01":{"name":"Franklin St & Dupont St","lat":40.73564,"lng":-73.95866,"starts":6652},"5945.01":{"name":"60 Ave & Otis Ave","lat":40.73715,"lng":-73.85614,"starts":153},"5947.04":{"name":"W 13 St & 5 Ave","lat":40.735445,"lng":-73.99431,"starts":6016},"5947.06":{"name":"E 15 St & 5 Ave","lat":40.736592,"lng":-73.992949,"starts":2698},"5953.03":{"name":"97 St & 57 Ave","lat":40.73727,"lng":-73.86415,"starts":263},"5955.12":{"name":"Perry St & Greenwich Ave","lat":40.735918,"lng":-74.000939,"starts":4469},"5956.04":{"name":"64 St & 51 Ave","lat":40.73577,"lng":-73.90184,"starts":237},"5956.05":{"name":"50 Ave & 65 St","lat":40.73707,"lng":-73.90077,"starts":432},"5962.04":{"name":"56 Ave & 92 St","lat":40.73649,"lng":-73.86995,"starts":461},"5964.01":{"name":"Bank St & Washington St","lat":40.7361967,"lng":-74.00859207,"starts":3767},"5971.08":{"name":"E 20 St & 2 Ave","lat":40.73587678,"lng":-73.98205027,"starts":4897},"5971.09":{"name":"E 22 St & 2 Ave","lat":40.7371691937,"lng":-73.9812254906,"starts":5559},"5977.01":{"name":"McGuinness Blvd & Eagle St","lat":40.73555,"lng":-73.95284,"starts":1704},"5980.1":{"name":"E 17 St & Broadway","lat":40.737006,"lng":-73.990134,"starts":939},"5980.10":{"name":"E 17 St & Broadway","lat":40.7370059947,"lng":-73.9901339841,"starts":8918},"5980.11":{"name":"Broadway & E 19 St","lat":40.73829,"lng":-73.99006,"starts":6426},"5983.04":{"name":"43 St & 50 Ave","lat":40.7378723795,"lng":-73.9226406813,"starts":984},"5987.03":{"name":"99 St & 58 Ave","lat":40.73761,"lng":-73.85959,"starts":203},"5989.02":{"name":"W 15 St & 6 Ave","lat":40.7380461425,"lng":-73.9964295924,"starts":8224},"5992.02":{"name":"36 St & Hunters Point Ave","lat":40.7378169988,"lng":-73.9302407205,"starts":196},"5995.07":{"name":"56 Ave & Junction Blvd","lat":40.73716,"lng":-73.86625,"starts":201},"5997.1":{"name":"W 12 St & Hudson St","lat":40.737529933,"lng":-74.0055893362,"starts":620},"5997.10":{"name":"W 12 St & Hudson St","lat":40.737529933,"lng":-74.0055893362,"starts":4782},"5998.09":{"name":"61 St & Laurel Hill Blvd","lat":40.7388,"lng":-73.90338,"starts":315},"6001.01":{"name":"Borden Ave & Review Ave","lat":40.7386634547,"lng":-73.9409380406,"starts":325},"6004.06":{"name":"E 27 St & 1 Ave","lat":40.739445,"lng":-73.976806,"starts":6050},"6004.07":{"name":"E 25 St & 1 Ave","lat":40.7381765,"lng":-73.97738662,"starts":3438},"6005.04":{"name":"55 Ave & 90 St","lat":40.73676,"lng":-73.87318,"starts":281},"6013.12":{"name":"Gramercy Park N & Gramercy Park E","lat":40.73795,"lng":-73.98509,"starts":5717},"6014.01":{"name":"St James Ave & 51 Ave","lat":40.73813,"lng":-73.88104,"starts":207},"6016.06":{"name":"48 St & 50 Ave","lat":40.73737,"lng":-73.91803,"starts":754},"6019.04":{"name":"Ash St & Manhattan Ave","lat":40.738095,"lng":-73.954867,"starts":3532},"6020.02":{"name":"Waldron St & 108 St","lat":40.73916,"lng":-73.8526,"starts":212},"6022.04":{"name":"E 16 St & 5 Ave","lat":40.73726186,"lng":-73.99238967,"starts":6641},"6025.08":{"name":"39 St & 50 Ave","lat":40.7382493735,"lng":-73.9273747802,"starts":715},"6028.01":{"name":"57 Ave & 98 Pl","lat":40.73802,"lng":-73.86103,"starts":257},"6030.04":{"name":"W 13 St & 7 Ave","lat":40.73781509,"lng":-73.99994661,"starts":6846},"6030.06":{"name":"W 15 St & 7 Ave","lat":40.73935542,"lng":-73.99931783,"starts":5278},"6033.01":{"name":"31 Pl & Hunters Point Ave","lat":40.7402135688,"lng":-73.9353704453,"starts":267},"6037.02":{"name":"53 Ave & 94 St","lat":40.73921,"lng":-73.86887,"starts":184},"6039.06":{"name":"Washington St & Gansevoort St","lat":40.7393228838,"lng":-74.0081189569,"starts":9807},"6046.02":{"name":"E 25 St & 2 Ave","lat":40.73912601,"lng":-73.97973776,"starts":5639},"6047.03":{"name":"51 Ave & Van Loon St","lat":40.73832,"lng":-73.87913,"starts":159},"6053.01":{"name":"Corona Ave & 111 St","lat":40.7408,"lng":-73.84978,"starts":223},"6055.08":{"name":"E 20 St & Park Ave","lat":40.73827428,"lng":-73.98751968,"starts":6667},"6056.02":{"name":"Queens Blvd & Albion Ave","lat":40.73856,"lng":-73.88553,"starts":202},"6058.08":{"name":"44 St & 48 Ave","lat":40.739413875,"lng":-73.9213196933,"starts":1017},"6062.03":{"name":"103 St & Martense Ave","lat":40.74046,"lng":-73.8565,"starts":293},"6064.08":{"name":"W 18 St & 6 Ave","lat":40.73971301,"lng":-73.99456405,"starts":7650},"6067.01":{"name":"48 Ave & 37 St","lat":40.7403466809,"lng":-73.928860724,"starts":255},"6070.05":{"name":"55 Ave & 97 Pl","lat":40.73892,"lng":-73.86367,"starts":62},"6072.06":{"name":"Greenwich Ave & 8 Ave","lat":40.7390169121,"lng":-74.0026376103,"starts":10747},"6072.11":{"name":"8 Ave & W 16 St","lat":40.740983,"lng":-74.001702,"starts":9222},"6072.16":{"name":"Gansevoort St & Hudson St","lat":40.7393760079,"lng":-74.0052080743,"starts":4382},"6076.02":{"name":"30 St & 48 Ave","lat":40.7413272,"lng":-73.937999,"starts":331},"6079.03":{"name":"1 Ave & E 30 St","lat":40.74144387,"lng":-73.97536082,"starts":5145},"6080.07":{"name":"90 St & 51 Ave","lat":40.73937,"lng":-73.87411,"starts":247},"6086.02":{"name":"Borden Ave & 25 St","lat":40.7396139,"lng":-73.945151,"starts":106},"6089.07":{"name":"Lexington Ave & E 24 St","lat":40.74025878,"lng":-73.98409214,"starts":7023},"6089.08":{"name":"Lexington Ave & E 26 St","lat":40.741459,"lng":-73.983293,"starts":3570},"6089.11":{"name":"E 26 St & 3 Ave","lat":40.7406931773,"lng":-73.9816063643,"starts":5634},"6090.03":{"name":"South Railroad Ave & Broadway","lat":40.741,"lng":-73.88027,"starts":451},"6092.01":{"name":"47 Ave & 48 St","lat":40.74086,"lng":-73.91708,"starts":620},"6096.01":{"name":"Van Cleef St & 108 St","lat":40.74096,"lng":-73.85357,"starts":141},"6098.02":{"name":"W 20 St & 5 Ave","lat":40.7397298924,"lng":-73.9910396934,"starts":6647},"6098.1":{"name":"Broadway & E 21 St","lat":40.7398884086,"lng":-73.9895859361,"starts":933},"6098.10":{"name":"Broadway & E 21 St","lat":40.7398884086,"lng":-73.9895859361,"starts":10579},"6099.02":{"name":"76 St & 45 Ave","lat":40.7411,"lng":-73.88837,"starts":237},"6101.11":{"name":"48 Ave & 41 St","lat":40.739859957,"lng":-73.9240032434,"starts":1120},"6104.01":{"name":"55 Ave & Center Blvd","lat":40.740288,"lng":-73.960697,"starts":2333},"6105.02":{"name":"100 St & Lewis Ave","lat":40.73988,"lng":-73.86012,"starts":168},"6107.08":{"name":"W 17 St & 7 Ave","lat":40.7405642363,"lng":-73.9985257387,"starts":4523},"6108.03":{"name":"69 St & 43 Ave","lat":40.74179,"lng":-73.89564,"starts":514},"6110.01":{"name":"34 St & 48 Ave","lat":40.7408212078,"lng":-73.9314718544,"starts":170},"6113.07":{"name":"51 Ave & Junction Blvd","lat":40.74087,"lng":-73.86772,"starts":109},"6115.06":{"name":"Hudson St & W 13 St","lat":40.7400570857,"lng":-74.0052741766,"starts":7149},"6115.09":{"name":"W 15 St & 10 Ave","lat":40.7427538287,"lng":-74.007473588,"starts":4988},"6116.03":{"name":"61 St & Queens Blvd","lat":40.74091,"lng":-73.90273,"starts":733},"6119.01":{"name":"49 Ave & 27 St","lat":40.74113,"lng":-73.942518,"starts":214},"6122.09":{"name":"2 Ave & E 29 St","lat":40.7417235219,"lng":-73.9780926563,"starts":7446},