{"pageProps":{"defaults":{"ym":"202406","stations":{"2733.03":{"name":"67 St & Erik Pl","lat":40.6333946516,"lng":-74.0165732412,"starts":360},"2782.02":{"name":"5 Ave & 67 St","lat":40.6357567448,"lng":-74.0199392704,"starts":415},"2821.06":{"name":"62 St & 7 Ave","lat":40.6360673864,"lng":-74.0132754252,"starts":307},"2832.03":{"name":"4 Ave & Shore Road Dr","lat":40.6371698449,"lng":-74.0220257528,"starts":553},"2861.02":{"name":"57 St & 7 Ave","lat":40.6386134085,"lng":-74.0102200118,"starts":301},"2872.02":{"name":"63 St & 5 Ave","lat":40.637668932,"lng":-74.0178011326,"starts":64},"2883.03":{"name":"3 Ave & Wakeman Pl","lat":40.6384389121,"lng":-74.0246619802,"starts":319},"2898.01":{"name":"Cortelyou Rd & Stratford Rd","lat":40.6397108824,"lng":-73.9680992144,"starts":1009},"2912.08":{"name":"6 Ave & 60 St","lat":40.6382209305,"lng":-74.0138016614,"starts":288},"2923.01":{"name":"62 St & 4 Ave","lat":40.6398694845,"lng":-74.0198061314,"starts":205},"2932.03":{"name":"Wakeman Pl & Ridge Blvd","lat":40.6394721577,"lng":-74.0267312916,"starts":542},"2951.05":{"name":"55 St & 7 Ave","lat":40.6397102806,"lng":-74.0089842423,"starts":316},"2961.05":{"name":"59 St & 5 Ave","lat":40.6401686511,"lng":-74.0157746748,"starts":187},"2971.02":{"name":"64 St & 3 Ave","lat":40.6399891603,"lng":-74.0232653679,"starts":114},"2984.04":{"name":"Cortelyou Rd & Argyle Rd","lat":40.6404445929,"lng":-73.9660002355,"starts":899},"3000.08":{"name":"6 Ave & 55 St","lat":40.6407742163,"lng":-74.0110762748,"starts":213},"3007.05":{"name":"Church Ave & Story St","lat":40.6423311182,"lng":-73.980958043,"starts":435},"3011.03":{"name":"59 St & 4 Ave","lat":40.641383457,"lng":-74.017427907,"starts":442},"3019.02":{"name":"65 St & 2 Ave","lat":40.6404851094,"lng":-74.0256274156,"starts":58},"3019.03":{"name":"Keegan Rd & 2 Ave","lat":40.642458053,"lng":-74.0255545544,"starts":92},"3022.01":{"name":"Cortelyou Rd & E 19 St","lat":40.6427076531,"lng":-73.9610241761,"starts":710},"3034.02":{"name":"Matthews Ct & Coney Island Ave","lat":40.6424269077,"lng":-73.9695180554,"starts":387},"3038.08":{"name":"50 St & 7 Ave","lat":40.6425232087,"lng":-74.0060786273,"starts":419},"3046.03":{"name":"E 3 St & Church Ave","lat":40.6438671635,"lng":-73.9775289264,"starts":467},"3050.03":{"name":"55 St & 5 Ave","lat":40.6424255627,"lng":-74.0133589001,"starts":246},"3056.05":{"name":"12 Ave & 36 St","lat":40.6437250231,"lng":-73.9864294076,"starts":489},"3070.04":{"name":"E 16 St & Cortelyou Rd","lat":40.6418093992,"lng":-73.9635859184,"starts":974},"3084.05":{"name":"52 St & 6 Ave","lat":40.6427514184,"lng":-74.0094778983,"starts":166},"3087.01":{"name":"Cortelyou Rd & E 34 St","lat":40.644642647,"lng":-73.94479581,"starts":220},"3090.06":{"name":"Church Ave & McDonald Ave","lat":40.642830037,"lng":-73.979198581,"starts":641},"3093.07":{"name":"57 St & 4 Ave","lat":40.6426537823,"lng":-74.0168805179,"starts":470},"3113.06":{"name":"Rugby Rd & Beverley Rd","lat":40.6446812633,"lng":-73.9659260758,"starts":495},"3113.1":{"name":"Stratford Rd & Beverley Rd","lat":40.6437609256,"lng":-73.9686577697,"starts":32},"3113.10":{"name":"Stratford Rd & Beverley Rd","lat":40.6440889298,"lng":-73.9686994122,"starts":427},"3117.05":{"name":"46 St & 7 Ave","lat":40.644825508,"lng":-74.0038024022,"starts":716},"3121.01":{"name":"Cortelyou Rd & Albany Ave","lat":40.6448275744,"lng":-73.93856059,"starts":131},"3125.09":{"name":"Ocean Pkwy & Church Ave","lat":40.6447249824,"lng":-73.9745386793,"starts":1070},"3129.08":{"name":"53 St & 5 Ave","lat":40.6435599963,"lng":-74.0118705142,"starts":350},"3132.09":{"name":"Beverley Rd & Nostrand Ave","lat":40.6451745605,"lng":-73.9487402637,"starts":561},"3135.04":{"name":"Chester Ave & 12 Ave","lat":40.6443458965,"lng":-73.9842373384,"starts":357},"3138.09":{"name":"58 St & 2 Ave","lat":40.644502409,"lng":-74.0214653115,"starts":236},"3140.09":{"name":"Bedford Ave & Beverley Rd","lat":40.6449904485,"lng":-73.9548218431,"starts":640},"3148.08":{"name":"E 17 St & Beverley Rd","lat":40.6447472314,"lng":-73.9631731092,"starts":522},"3148.09":{"name":"E 19 St & Beverley Rd","lat":40.6449690819,"lng":-73.9612570187,"starts":479},"3155.01":{"name":"Schenectady Ave & Cortelyou Rd","lat":40.6453771666,"lng":-73.9326946665,"starts":201},"3157.08":{"name":"Turner Pl & Coney Island Ave","lat":40.6452459062,"lng":-73.9707848778,"starts":473},"3161.02":{"name":"46 St & 6 Ave","lat":40.6459288258,"lng":-74.0056864197,"starts":488},"3164.04":{"name":"Brooklyn Ave & Beverley Rd","lat":40.6457430112,"lng":-73.9433071879,"starts":98},"3166.03":{"name":"Albemarle Rd & McDonald Ave","lat":40.6452090951,"lng":-73.9797191443,"starts":625},"3169.07":{"name":"53 St & 4 Ave","lat":40.6448872191,"lng":-74.0145551897,"starts":353},"3172.01":{"name":"Tilden Ave & Nostrand Ave","lat":40.6468534843,"lng":-73.9493732247,"starts":254},"3178.02":{"name":"57 St & 1 Ave","lat":40.6463618165,"lng":-74.0230473049,"starts":243},"3180.02":{"name":"Beverley Rd & Flatbush Ave","lat":40.64508497,"lng":-73.9582451883,"starts":872},"3180.09":{"name":"Albemarle Rd & E 21 St","lat":40.6474415635,"lng":-73.959315322,"starts":638},"3187.01":{"name":"Beverley Rd & E 49 St","lat":40.6462191039,"lng":-73.9306308657,"starts":153},"3188.04":{"name":"Rugby Rd & Albemarle Rd","lat":40.6467421546,"lng":-73.9663784157,"starts":450},"3192.05":{"name":"7 Ave & 41 St","lat":40.6475299728,"lng":-74.000840737,"starts":1153},"3199.01":{"name":"Caton Ave & E 7 St","lat":40.6477456038,"lng":-73.973716398,"starts":762},"3202.06":{"name":"48 St & 5 Ave","lat":40.6463585217,"lng":-74.00932,"starts":644},"3205.06":{"name":"Brooklyn Ave & Tilden Ave","lat":40.647283542,"lng":-73.9435061693,"starts":50},"3208.07":{"name":"Dahill Rd & 12 Ave","lat":40.6460242267,"lng":-73.9809380455,"starts":410},"3211.06":{"name":"53 St & 2 Ave","lat":40.6474722568,"lng":-74.0188490267,"starts":488},"3214.04":{"name":"Tilden Ave & Lott St","lat":40.6466688562,"lng":-73.9541161199,"starts":150},"3220.01":{"name":"58 St & Pier 4","lat":40.6465123042,"lng":-74.0260464235,"starts":587},"3223.07":{"name":"Ocean Ave & Tennis Ct","lat":40.6487590701,"lng":-73.9608150309,"starts":594},"3229.07":{"name":"E 48 St & Tilden Ave","lat":40.6479279669,"lng":-73.9318261881,"starts":101},"3230.01":{"name":"Caton Ave & E 10 St","lat":40.6486562692,"lng":-73.9705482144,"starts":578},"3233.06":{"name":"44 St & 6 Ave","lat":40.6471753488,"lng":-74.0043757156,"starts":319},"3240.15":{"name":"Fort Hamilton Pkwy & E 5 St","lat":40.649120315,"lng":-73.9767952772,"starts":1200},"3243.02":{"name":"47 St & 3 Ave","lat":40.6492173956,"lng":-74.0122439159,"starts":187},"3246.06":{"name":"New York Ave & Snyder Ave","lat":40.6489614482,"lng":-73.9463776733,"starts":207},"3253.01":{"name":"52 St & 1 Ave","lat":40.6492853345,"lng":-74.0200942173,"starts":183},"3256.04":{"name":"Bedford Ave & Albemarle Rd","lat":40.6480224264,"lng":-73.9556077124,"starts":375},"3263.01":{"name":"E 18 St & Church Ave","lat":40.649649041,"lng":-73.9631507679,"starts":980},"3266.01":{"name":"7 Ave & 40 St","lat":40.6482929403,"lng":-74.0000150728,"starts":590},"3272.01":{"name":"E 8 St & Caton Ave","lat":40.6481106042,"lng":-73.972449802,"starts":784},"3275.03":{"name":"45 St & 4 Ave","lat":40.6491555714,"lng":-74.0094642051,"starts":686},"3278.07":{"name":"Brooklyn Ave & Snyder Ave","lat":40.6491401,"lng":-73.9436733145,"starts":130},"3280.04":{"name":"Fort Hamilton Pkwy & E 2 St","lat":40.6481412815,"lng":-73.9793744073,"starts":874},"3283.05":{"name":"48 St & 2 Ave","lat":40.6501668921,"lng":-74.0155947173,"starts":132},"3286.07":{"name":"Rogers Ave & Snyder Ave","lat":40.6486973356,"lng":-73.9522061934,"starts":469},"3294.03":{"name":"E 21 St & Church Ave","lat":40.6500483762,"lng":-73.9600084674,"starts":727},"3300.04":{"name":"E 49 St & Church Ave","lat":40.6518683912,"lng":-73.931384519,"starts":169},"3300.06":{"name":"Snyder Ave & Schenectady Ave","lat":40.6500457192,"lng":-73.9328197907,"starts":133},"3303.03":{"name":"Caton Ave & Argyle Rd","lat":40.6498755272,"lng":-73.9678533928,"starts":827},"3306.03":{"name":"5 Ave & 41 St","lat":40.6500951545,"lng":-74.0051379753,"starts":1182},"3309.04":{"name":"Church Ave & E 42 St","lat":40.6512885505,"lng":-73.9382391922,"starts":163},"3312.07":{"name":"Prospect Ave & Greenwood Ave","lat":40.6518200493,"lng":-73.9759914909,"starts":642},"3315.05":{"name":"44 St & 3 Ave","lat":40.6511992562,"lng":-74.0114105497,"starts":215},"3318.05":{"name":"E 34 St & Church Ave","lat":40.6511733876,"lng":-73.9457494277,"starts":108},"3327.01":{"name":"Lott St & Erasmus St","lat":40.6499944378,"lng":-73.9539164305,"starts":160},"3335.09":{"name":"Caton Ave & St. Pauls Pl","lat":40.6516014605,"lng":-73.9627722061,"starts":824},"3341.06":{"name":"Church Ave & E 45 St","lat":40.6515710983,"lng":-73.9354021568,"starts":84},"3344.02":{"name":"Park Circle & East Dr","lat":40.6516012266,"lng":-73.9721890676,"starts":3190},"3347.03":{"name":"41 St & 4 Ave","lat":40.6513447796,"lng":-74.0071363331,"starts":614},"3350.04":{"name":"E 38 St & Church Ave","lat":40.6510442434,"lng":-73.9419115104,"starts":122},"3353.04":{"name":"Greenwood Ave & E 4 St","lat":40.6508369687,"lng":-73.9777095356,"starts":667},"3356.05":{"name":"44 St & 2 Ave","lat":40.6525204037,"lng":-74.0135955406,"starts":152},"3356.07":{"name":"2 Ave & 44 St","lat":40.6523071595,"lng":-74.0134866494,"starts":39},"3359.01":{"name":"Church Ave & Nostrand Ave","lat":40.6509412418,"lng":-73.9499108501,"starts":688},"3359.03":{"name":"Linden Blvd & Nostrand Ave","lat":40.6529608856,"lng":-73.9497353736,"starts":587},"3368.04":{"name":"Caton Ave & Bedford Ave","lat":40.6524951433,"lng":-73.9562713071,"starts":1409},"3373.01":{"name":"E 51 St & Linden Blvd","lat":40.6540077481,"lng":-73.9296661397,"starts":235},"3376.02":{"name":"Parade Pl & Crooke Ave","lat":40.6519303244,"lng":-73.9653279336,"starts":1129},"3376.04":{"name":"Parkside Ave & Parade Pl","lat":40.6531976132,"lng":-73.9664054857,"starts":1327},"3379.03":{"name":"5 Ave & 37 St","lat":40.652643287,"lng":-74.0023793314,"starts":535},"3382.04":{"name":"Troy Ave & Linden Blvd","lat":40.653293388,"lng":-73.9364743833,"starts":224},"3385.06":{"name":"Prospect Park SW & Greenwood Ave","lat":40.6526178986,"lng":-73.9726104238,"starts":1357},"3388.02":{"name":"41 St & 3 Ave","lat":40.6528264997,"lng":-74.0089017424,"starts":86},"3388.03":{"name":"40 St & 3 Ave","lat":40.6535012084,"lng":-74.0090360075,"starts":103},"3391.1":{"name":"E 34 St & Linden Blvd","lat":40.6530272244,"lng":-73.9459477606,"starts":9},"3391.10":{"name":"E 34 St & Linden Blvd","lat":40.6531808311,"lng":-73.9461497193,"starts":112},"3394.03":{"name":"McDonald Ave & Vanderbilt St","lat":40.6517891435,"lng":-73.9811441928,"starts":491},"3400.04":{"name":"Rogers Ave & Lenox Rd","lat":40.6538503315,"lng":-73.9527226809,"starts":688},"3408.05":{"name":"Ocean Ave & Crooke Ave","lat":40.6534867463,"lng":-73.9617361854,"starts":869},"3420.01":{"name":"36 St & 4 Ave","lat":40.6541599413,"lng":-74.0041908042,"starts":1479},"3423.1":{"name":"Clarkson Ave & E 40 St","lat":40.6559190005,"lng":-73.940682829,"starts":6},"3423.10":{"name":"Clarkson Ave & E 40 St","lat":40.6558992736,"lng":-73.9407316366,"starts":168},"3426.02":{"name":"Prospect Ave & Vanderbilt St","lat":40.6533384096,"lng":-73.9762822933,"starts":680},"3428.02":{"name":"42 St & 1 Ave","lat":40.6547963957,"lng":-74.0143637257,"starts":88},"3428.04":{"name":"2 Ave & 43 St","lat":40.6528945273,"lng":-74.0128798048,"starts":15},"3431.02":{"name":"New York Ave & Lenox Rd","lat":40.6545616896,"lng":-73.9471332101,"starts":548},"3439.03":{"name":"Bedford Ave & Clarkson Ave","lat":40.6552755869,"lng":-73.9564092987,"starts":1139},"3448.02":{"name":"Parkside Ave & Ocean Ave","lat":40.6549164759,"lng":-73.9622194183,"starts":3599},"3451.01":{"name":"34 St & 5 Ave","lat":40.6541162243,"lng":-74.0011552899,"starts":316},"3454.01":{"name":"Clarkson Ave & Troy Ave","lat":40.6563366594,"lng":-73.9364696388,"starts":103},"3457.03":{"name":"Prospect Park SW & Vanderbilt St","lat":40.6550142016,"lng":-73.9732378759,"starts":1657},"3460.01":{"name":"2 Ave & 36 St","lat":40.6572097023,"lng":-74.0085757027,"starts":438},"3460.02":{"name":"36 St & 3 Ave","lat":40.6557892879,"lng":-74.0065990906,"starts":1306},"3460.06":{"name":"2 Ave & 37 St","lat":40.6562199562,"lng":-74.0093734764,"starts":475},"3463.01":{"name":"Clarkson Ave & E 37 St","lat":40.6558052819,"lng":-73.9432250967,"starts":554},"3472.03":{"name":"Clarkson Ave & Nostrand Ave","lat":40.6556267247,"lng":-73.949673862,"starts":810},"3480.04":{"name":"Parkside Ave & Flatbush Ave","lat":40.6556998749,"lng":-73.9596340674,"starts":1170},"3486.02":{"name":"Clarkson Ave & Utica Ave","lat":40.6568059407,"lng":-73.9311301481,"starts":189},"3492.04":{"name":"34 St & 4 Ave","lat":40.6553241576,"lng":-74.00299173,"starts":821},"3495.08":{"name":"Lenox Rd & E 43 St","lat":40.654995439,"lng":-73.9377714711,"starts":203},"3498.09":{"name":"Prospect Park SW & 16 St","lat":40.6573164652,"lng":-73.9741943462,"starts":1972},"3504.02":{"name":"New York Ave & Hawthorne St","lat":40.6579767904,"lng":-73.9473732914,"starts":420},"3507.04":{"name":"Prospect Park W & 20 St","lat":40.6567704874,"lng":-73.9838106179,"starts":888},"3512.03":{"name":"Winthrop St & Rogers Ave","lat":40.6569352384,"lng":-73.9533754979,"starts":706},"3515.01":{"name":"7 Ave & 22 St","lat":40.6583521141,"lng":-73.9895520654,"starts":620},"3520.01":{"name":"Flatbush Ave & Fenimore St","lat":40.6580095984,"lng":-73.9605003624,"starts":1036},"3523.06":{"name":"29 St & 5 Ave","lat":40.6569993623,"lng":-73.9982221674,"starts":393},"3526.04":{"name":"Winthrop St & Schenectady Ave","lat":40.6581891196,"lng":-73.9337657898,"starts":55},"3532.02":{"name":"2 Ave & 32 St","lat":40.6591561813,"lng":-74.0066119291,"starts":170},"3535.03":{"name":"Winthrop St & Albany Ave","lat":40.6578421064,"lng":-73.9399191435,"starts":299},"3538.09":{"name":"11 Ave & Prospect Ave","lat":40.6563694866,"lng":-73.9773176055,"starts":1683},"3544.02":{"name":"Winthrop St & Nostrand Ave","lat":40.6571608061,"lng":-73.9501015266,"starts":588},"3547.04":{"name":"19 St & 8 Ave","lat":40.6585747775,"lng":-73.9855020846,"starts":396},"3552.09":{"name":"Bedford Ave & Fenimore St","lat":40.6583229691,"lng":-73.9567111851,"starts":847},"3555.04":{"name":"24 St & 5 Ave","lat":40.6595702682,"lng":-73.9949882704,"starts":1043},"3564.04":{"name":"30 St & 4 Ave","lat":40.6577563701,"lng":-74.0011633098,"starts":606},"3567.05":{"name":"Rutland Rd & E 45 St","lat":40.6603407126,"lng":-73.9362031389,"starts":228},"3576.1":{"name":"Rutland Rd & Brooklyn Ave","lat":40.6596692967,"lng":-73.9451728349,"starts":433},"3579.04":{"name":"Windsor Pl & Howard Pl","lat":40.6595560034,"lng":-73.9801970871,"starts":2235},"3585.06":{"name":"Nostrand Ave & Rutland Rd","lat":40.6595883345,"lng":-73.9504457916,"starts":698},"3588.01":{"name":"7 Ave & 20 St","lat":40.6591138211,"lng":-73.988554186,"starts":1147},"3593.01":{"name":"Maple St & Flatbush Ave","lat":40.660268029,"lng":-73.9604047609,"starts":1313},"3593.1":{"name":"Flatbush Ave & Lincoln Rd","lat":40.6613348921,"lng":-73.9609203377,"starts":2022},"3596.04":{"name":"4 Ave & 26 St","lat":40.6601618249,"lng":-73.9986054597,"starts":764},"3599.01":{"name":"Midwood St & Utica Ave","lat":40.6614009503,"lng":-73.9316759769,"starts":177},"3608.06":{"name":"Maple St & Albany Ave","lat":40.6617863681,"lng":-73.9398730865,"starts":377},"3611.02":{"name":"Prospect Park SW & 10 Ave","lat":40.6599792217,"lng":-73.9774766038,"starts":1689},"3617.02":{"name":"Maple St & New York Ave","lat":40.66103407,"lng":-73.9479743494,"starts":710},"3620.02":{"name":"Windsor Pl & 8 Ave","lat":40.661022923,"lng":-73.982968525,"starts":1242},"3625.04":{"name":"Bedford Ave & Maple St","lat":40.6603228118,"lng":-73.9567969952,"starts":767},"3625.07":{"name":"Rogers Ave & Lincoln Rd","lat":40.6613200418,"lng":-73.953564021,"starts":1397},"3628.11":{"name":"6 Ave & 21 St","lat":40.6602911355,"lng":-73.9909011934,"starts":2172},"3633.08":{"name":"Lincoln Rd & Ocean Ave","lat":40.6605665315,"lng":-73.9625906419,"starts":3636},"3639.04":{"name":"Schenectady Ave & Maple St","lat":40.6617623626,"lng":-73.9344567961,"starts":159},"3648.08":{"name":"Kingston Ave & E New York Ave","lat":40.6622957859,"lng":-73.9429350662,"starts":900},"3651.04":{"name":"West Drive & Prospect Park West","lat":40.6612019162,"lng":-73.97935134,"starts":8174},"3657.06":{"name":"Sterling St & Nostrand Ave","lat":40.6631818179,"lng":-73.9507382339,"starts":1509},"3660.07":{"name":"7 Ave & 17 St","lat":40.6610300272,"lng":-73.9867842741,"starts":1408},"3665.06":{"name":"Sterling St & Bedford Ave","lat":40.6628072264,"lng":-73.9568925902,"starts":748},"3668.04":{"name":"21 St & 4 Ave","lat":40.6626710646,"lng":-73.9954972438,"starts":1116},"3680.04":{"name":"E New York Ave & Troy Ave","lat":40.6622784874,"lng":-73.9376521256,"starts":365},"3688.06":{"name":"Brooklyn Ave & Lefferts Ave","lat":40.6625752899,"lng":-73.9455980541,"starts":675},"3696.05":{"name":"Rogers Ave & Sterling St","lat":40.6631738712,"lng":-73.9538949765,"starts":965},"3699.07":{"name":"17 St & 5 Ave","lat":40.6635752288,"lng":-73.990990568,"starts":1955},"3704.01":{"name":"Washington Ave & Empire Blvd","lat":40.6631933678,"lng":-73.9605989144,"starts":1275},"3704.04":{"name":"Flatbush Ave & Ocean Ave","lat":40.6636934304,"lng":-73.96299593,"starts":2842},"3707.01":{"name":"23 St & 3 Ave","lat":40.6628453934,"lng":-73.9985088609,"starts":241},"3710.07":{"name":"Lefferts Ave & Schenectady Ave","lat":40.6634930133,"lng":-73.9348085357,"starts":895},"3719.02":{"name":"Lefferts Ave & Albany Ave","lat":40.6629163594,"lng":-73.9402456607,"starts":675},"3722.04":{"name":"Prospect Park West & 8 St","lat":40.6652107412,"lng":-73.9763385888,"starts":4538},"3728.04":{"name":"Empire Blvd & New York Ave","lat":40.6641859956,"lng":-73.9476719135,"starts":434},"3728.05":{"name":"New York Ave & Montgomery St","lat":40.6651611302,"lng":-73.9480927509,"starts":467},"3731.11":{"name":"14 St & 7 Ave","lat":40.6638400978,"lng":-73.9839454761,"starts":3237},"3736.03":{"name":"Bedford Ave & Montgomery St","lat":40.6659128365,"lng":-73.9569222006,"starts":761},"3739.06":{"name":"4 Ave & 17 St","lat":40.6655210792,"lng":-73.9929402514,"starts":911},"3742.11":{"name":"Carroll St & Rochester Ave","lat":40.6660068864,"lng":-73.9283950918,"starts":514},"3751.05":{"name":"Crown St & Troy Ave","lat":40.6655907887,"lng":-73.9371491059,"starts":529},"3759.07":{"name":"Kingston Ave & Montgomery St","lat":40.6648030702,"lng":-73.9426942051,"starts":875},"3762.08":{"name":"10 St & 7 Ave","lat":40.666319542,"lng":-73.9819433459,"starts":4252},"3768.02":{"name":"Crown St & Rogers Ave","lat":40.6665356809,"lng":-73.9533990938,"starts":915},"3771.06":{"name":"14 St & 5 Ave","lat":40.666406263,"lng":-73.9889425196,"starts":3097},"3776.05":{"name":"Montgomery St & Franklin Ave","lat":40.6665043061,"lng":-73.9605964736,"starts":1030},"3776.1":{"name":"McKeever Pl & Sullivan Pl","lat":40.6643300521,"lng":-73.9592165019,"starts":54},"3776.10":{"name":"McKeever Pl & Sullivan Pl","lat":40.6644545654,"lng":-73.9592492723,"starts":542},"3779.02":{"name":"3 Ave & 17 St","lat":40.6662298272,"lng":-73.9954716143,"starts":218},"3782.03":{"name":"Carroll St & Utica Ave","lat":40.6661868259,"lng":-73.9316493635,"starts":467},"3791.02":{"name":"Albany Ave & Carroll St","lat":40.6667605986,"lng":-73.9397004988,"starts":849},"3803.05":{"name":"6 Ave & 12 St","lat":40.6663832387,"lng":-73.9853774622,"starts":2309},"3803.09":{"name":"6 Ave & 9 St","lat":40.6682286985,"lng":-73.9837365822,"starts":4238},"3811.05":{"name":"16 St & 4 Ave","lat":40.666236857,"lng":-73.99247716,"starts":1284},"3814.01":{"name":"Buffalo Ave & E New York Ave","lat":40.6659889986,"lng":-73.9260247709,"starts":805},"3822.08":{"name":"Schenectady Ave & President St","lat":40.6673383151,"lng":-73.9340272311,"starts":434},"3831.03":{"name":"Kingston Ave & Carroll St","lat":40.6669159572,"lng":-73.9425077029,"starts":1198},"3834.1":{"name":"6 St & 7 Ave","lat":40.6687738682,"lng":-73.9798923029,"starts":238},"3834.10":{"name":"6 St & 7 Ave","lat":40.6686834976,"lng":-73.9798818071,"starts":3000},"3839.02":{"name":"President St & Nostrand Ave","lat":40.6681770007,"lng":-73.9504821203,"starts":1236},"3842.08":{"name":"10 St & 5 Ave","lat":40.6687055026,"lng":-73.9870029035,"starts":2124},"3845.05":{"name":"Eastern Pkwy & Ralph Ave","lat":40.6687245327,"lng":-73.923036575,"starts":233},"3847.04":{"name":"Carroll St & Franklin Ave","lat":40.6679909655,"lng":-73.9587691223,"starts":881},"3850.03":{"name":"3 Ave & 14 St","lat":40.6686802891,"lng":-73.9932841765,"starts":980},"3853.02":{"name":"Eastern Pkwy & Rochester Ave","lat":40.6685717961,"lng":-73.9282798861,"starts":661},"3856.03":{"name":"Flatbush Ave & Eastern Pkwy","lat":40.6687482485,"lng":-73.9664145132,"starts":811},"3862.07":{"name":"Eastern Pkwy & Troy Ave","lat":40.6693129406,"lng":-73.9368804209,"starts":816},"3865.05":{"name":"3 St & Prospect Park West","lat":40.6682409852,"lng":-73.9735585637,"starts":5786},"3871.02":{"name":"Eastern Pkwy & Brooklyn Ave","lat":40.6695084093,"lng":-73.9451719592,"starts":1182},"3874.01":{"name":"5 St & 6 Ave","lat":40.6705063197,"lng":-73.982111566,"starts":637},"3877.04":{"name":"Pitkin Ave & Grafton St","lat":40.6685477062,"lng":-73.9190596567,"starts":272},"3879.04":{"name":"Union St & Bedford Ave","lat":40.6693076462,"lng":-73.9553510871,"starts":1775},"3882.01":{"name":"12 St & 4 Ave","lat":40.668658134,"lng":-73.990450921,"starts":1404},"3882.05":{"name":"10 St & 4 Ave","lat":40.669725836,"lng":-73.9889488645,"starts":2300},"3885.06":{"name":"Buffalo Ave & St John's Pl","lat":40.6701942907,"lng":-73.925430723,"starts":216},"3887.03":{"name":"Carroll St & Washington Ave","lat":40.6688001536,"lng":-73.9618077505,"starts":1072},"3893.03":{"name":"Eastern Pkwy & Schenectady Ave","lat":40.6689184236,"lng":-73.9336675652,"starts":1000},"3902.06":{"name":"Eastern Pkwy & Kingston Ave","lat":40.6696598769,"lng":-73.9424465808,"starts":3167},"3905.15":{"name":"3 St & 7 Ave","lat":40.6704563531,"lng":-73.9783658158,"starts":4686},"3911.05":{"name":"Eastern Pkwy & Nostrand Ave","lat":40.6696646544,"lng":-73.9502553696,"starts":1508},"3914.02":{"name":"7 St & 5 Ave","lat":40.6706019228,"lng":-73.9854244336,"starts":2635},"3917.03":{"name":"St Johns Pl & Howard Ave","lat":40.6701573423,"lng":-73.9204849294,"starts":207},"3919.07":{"name":"Eastern Pkwy & Franklin Ave (NE Corner)","lat":40.6708404074,"lng":-73.9576337286,"starts":3876},"3919.12":{"name":"Eastern Pkwy & Franklin Ave (SW Corner)","lat":40.6706499893,"lng":-73.9582632272,"starts":1501},"3922.02":{"name":"10 St & 2 Ave","lat":40.6719523971,"lng":-73.9935698376,"starts":1374},"3925.03":{"name":"Sterling Pl & Rochester Ave","lat":40.6713205619,"lng":-73.9282685831,"starts":304},"3928.08":{"name":"Eastern Pkwy & Washington Ave","lat":40.6717277772,"lng":-73.963197241,"starts":2902},"3931.09":{"name":"Bay St & Court St","lat":40.6715191583,"lng":-74.0013530508,"starts":576},"3934.06":{"name":"Sterling Pl & Schenectady Ave","lat":40.6716205153,"lng":-73.9338021623,"starts":509},"3934.07":{"name":"Troy Ave & Park Pl","lat":40.6725676167,"lng":-73.9364732669,"starts":645},"3940.04":{"name":"Sigourney St & Columbia St","lat":40.6727125319,"lng":-74.0088500398,"starts":832},"3943.03":{"name":"St Johns Pl & Kingston Ave","lat":40.6711735463,"lng":-73.9422348485,"starts":1163},"3946.07":{"name":"1 St & 6 Ave","lat":40.6729198657,"lng":-73.9797796822,"starts":2331},"3950.03":{"name":"Park Pl & Thomas S. Boyland St","lat":40.6715312698,"lng":-73.9143688021,"starts":310},"3952.07":{"name":"Lincoln Pl & Nostrand Ave","lat":40.6708659155,"lng":-73.9507167888,"starts":1556},"3958.02":{"name":"Sterling Pl & Ralph Ave","lat":40.6709581324,"lng":-73.922200169,"starts":193},"3960.01":{"name":"Lincoln Pl & Classon Ave","lat":40.6722746303,"lng":-73.9608532626,"starts":1924},"3966.01":{"name":"St Johns Pl & Utica Ave","lat":40.6705317671,"lng":-73.9307248673,"starts":615},"3966.03":{"name":"Park Pl & Utica Ave","lat":40.6724084737,"lng":-73.9310059733,"starts":415},"3972.08":{"name":"Henry St & Bay St","lat":40.672739873,"lng":-74.0048860936,"starts":380},"3975.02":{"name":"Albany Ave & Park Pl","lat":40.6730463308,"lng":-73.9389582824,"starts":651},"3978.13":{"name":"Garfield Pl & 8 Ave","lat":40.6713007561,"lng":-73.9748745844,"starts":3336},"3981.1":{"name":"Dwight St & Van Dyke St","lat":40.6735879309,"lng":-74.0120000011,"starts":41},"3981.10":{"name":"Dwight St & Van Dyke St","lat":40.6736162848,"lng":-74.0119785774,"starts":405},"3982.01":{"name":"Eastern Pkwy\\t& St Marks Ave","lat":40.6732032977,"lng":-73.9108115564,"starts":222},"3984.02":{"name":"Sterling Pl & New York Ave","lat":40.6723855115,"lng":-73.9476796171,"starts":1567},"3987.06":{"name":"5 Ave & 3 St","lat":40.672877886,"lng":-73.9835262445,"starts":4080},"3991.04":{"name":"Prospect Pl & Howard Ave","lat":40.6727205591,"lng":-73.9198150853,"starts":199},"3993.03":{"name":"Sterling Pl & Bedford Ave","lat":40.6727438953,"lng":-73.9541105938,"starts":2238},"3996.01":{"name":"7 St & 3 Ave","lat":40.6726364207,"lng":-73.9897634525,"starts":1957},"3999.06":{"name":"Park Pl & Buffalo Ave","lat":40.6720521598,"lng":-73.9254267864,"starts":338},"4001.09":{"name":"St Johns Pl & Washington Ave","lat":40.6737946512,"lng":-73.963229401,"starts":2872},"4007.01":{"name":"Schenectady Ave & Prospect Pl","lat":40.6736535724,"lng":-73.9336279796,"starts":760},"4010.01":{"name":"Plaza St East & Flatbush Ave","lat":40.6731757249,"lng":-73.9691224122,"starts":6132},"4010.13":{"name":"Plaza St West & Flatbush Ave","lat":40.6750357296,"lng":-73.9711321235,"starts":4450},"4010.15":{"name":"Grand Army Plaza & Plaza St West","lat":40.6729820529,"lng":-73.9708655631,"starts":4633},"4013.08":{"name":"Columbia St & Lorraine St","lat":40.6747837336,"lng":-74.0075362661,"starts":268},"4014.01":{"name":"Pacific St & Sackman St","lat":40.675227733,"lng":-73.9060677145,"starts":137},"4016.03":{"name":"Kingston Ave & Park Pl","lat":40.6732476415,"lng":-73.9419772803,"starts":1177},"4019.06":{"name":"Carroll St & 6 Ave","lat":40.6741237289,"lng":-73.9787019352,"starts":2826},"4023.01":{"name":"St Marks Ave & Thomas S. Boyland St","lat":40.6731360278,"lng":-73.9138471243,"starts":115},"4023.05":{"name":"Pacific St & Thomas S. Boyland St","lat":40.6756801554,"lng":-73.9139978244,"starts":184},"4025.02":{"name":"Prospect Pl & Nostrand Ave","lat":40.6743084028,"lng":-73.9503329276,"starts":2121},"4028.03":{"name":"3 St & 3 Ave","lat":40.6750984216,"lng":-73.9877007601,"starts":1929},"4028.04":{"name":"4 Ave & 3 St","lat":40.6737583722,"lng":-73.985633852,"starts":2556},"4031.05":{"name":"St Marks Ave & Ralph Ave","lat":40.674196705,"lng":-73.9221447521,"starts":267},"4033.16":{"name":"Sterling Pl & Franklin Ave","lat":40.6733152718,"lng":-73.9569095647,"starts":3285},"4033.18":{"name":"Sterling Pl & Classon Ave","lat":40.6740011404,"lng":-73.9602911749,"starts":1576},"4039.04":{"name":"St Marks Ave & Rochester Ave","lat":40.6740414847,"lng":-73.9276889719,"starts":377},"4042.08":{"name":"Underhill Ave & Lincoln Pl","lat":40.6740727257,"lng":-73.9671526063,"starts":3075},"4045.01":{"name":"Clinton St & Centre St","lat":40.6744117879,"lng":-74.0019499521,"starts":511},"4048.03":{"name":"Bergen St & Troy Ave","lat":40.6752686246,"lng":-73.9358929749,"starts":433},"4051.01":{"name":"Berkeley Pl & 7 Ave","lat":40.6752498251,"lng":-73.9752131985,"starts":5765},"4054.06":{"name":"Dwight St & Dikeman St","lat":40.6750514663,"lng":-74.010380588,"starts":294},"4055.04":{"name":"Bergen St & Mother Gaston Blvd","lat":40.6737738823,"lng":-73.9085513206,"starts":208},"4057.04":{"name":"Brooklyn Ave & Prospect Pl","lat":40.6743158496,"lng":-73.944495956,"starts":1644},"4060.09":{"name":"Carroll St & 5 Ave","lat":40.6753119971,"lng":-73.9815082082,"starts":3364},"4064.03":{"name":"Bergen St & Saratoga Ave","lat":40.6742429343,"lng":-73.9165317462,"starts":269},"4066.15":{"name":"Bedford Ave & Bergen St","lat":40.6764002075,"lng":-73.9529153231,"starts":2439},"4072.02":{"name":"Bergen St & Buffalo Ave","lat":40.6747042524,"lng":-73.9251528825,"starts":291},"4074.14":{"name":"Classon Ave & St Marks Ave","lat":40.6765519642,"lng":-73.9594760326,"starts":2869},"4077.04":{"name":"Smith St & 9 St","lat":40.6747646803,"lng":-73.9977949708,"starts":2240},"4077.07":{"name":"Court St & Nelson St","lat":40.6764311504,"lng":-73.9987093331,"starts":2232},"4080.01":{"name":"Schenectady Ave & Pacific St","lat":40.6769311846,"lng":-73.9333231827,"starts":470},"4086.05":{"name":"Columbia St & W 9 St","lat":40.6769763816,"lng":-74.0064843655,"starts":394},"4086.06":{"name":"Henry St & W 9 St","lat":40.6763879061,"lng":-74.0032166024,"starts":308},"4087.01":{"name":"Van Sinderen Ave & Atlantic Ave","lat":40.6763733077,"lng":-73.9037870969,"starts":329},"4089.01":{"name":"Bergen St & Kingston Ave","lat":40.6756438492,"lng":-73.9414148981,"starts":1280},"4095.03":{"name":"Van Brunt St & Wolcott St","lat":40.6774849651,"lng":-74.0126623774,"starts":1509},"4095.1":{"name":"Van Brunt St & Van Dyke St","lat":40.6759032263,"lng":-74.0146788,"starts":239},"4095.10":{"name":"Van Brunt St & Van Dyke St","lat":40.6759273934,"lng":-74.0146534494,"starts":1961},"4096.08":{"name":"Dean St & Rockaway Ave","lat":40.6748549817,"lng":-73.9112769649,"starts":161},"4098.06":{"name":"New York Ave & St Marks Ave","lat":40.6752028916,"lng":-73.94721067,"starts":1595},"4101.17":{"name":"President St & 4 Ave","lat":40.6767512803,"lng":-73.9832455208,"starts":2908},"4105.01":{"name":"Pacific St & Ralph Ave","lat":40.6760785102,"lng":-73.9217068955,"starts":329},"4107.05":{"name":"Franklin Ave & St Marks Ave","lat":40.6758668265,"lng":-73.9561686393,"starts":2955},"4107.13":{"name":"Dean St & Franklin Ave","lat":40.6776505337,"lng":-73.9556845366,"starts":3493},"4110.1":{"name":"3 St & Hoyt St","lat":40.6778045181,"lng":-73.9934716625,"starts":182},"4110.10":{"name":"3 St & Hoyt St","lat":40.6777123214,"lng":-73.9935544101,"starts":1479},"4113.01":{"name":"Pacific St & Rochester Ave","lat":40.6764342376,"lng":-73.9275311995,"starts":197},"4116.08":{"name":"Prospect Pl & Underhill Ave","lat":40.6770324844,"lng":-73.9657615182,"starts":2239},"4116.09":{"name":"Washington Ave & Park Pl","lat":40.6759441508,"lng":-73.9633305482,"starts":2809},"4119.04":{"name":"Clinton St & 4 Place","lat":40.6784083316,"lng":-74.0000847161,"starts":1903},"4120.02":{"name":"Fulton St & Williams Ave","lat":40.6773104507,"lng":-73.9009579052,"starts":481},"4122.03":{"name":"Pacific St & Troy Ave","lat":40.676874928,"lng":-73.9361336722,"starts":698},"4125.07":{"name":"7 Ave & Park Pl","lat":40.6776317751,"lng":-73.9732320269,"starts":5600},"4128.08":{"name":"Pioneer St & Richards St","lat":40.6778441752,"lng":-74.0094329092,"starts":429},"4129.1":{"name":"Herkimer St & Eastern Pkwy","lat":40.6773814385,"lng":-73.9082913506,"starts":8},"4129.10":{"name":"Herkimer St & Eastern Pkwy","lat":40.677386866,"lng":-73.9082989239,"starts":208},"4131.03":{"name":"Brooklyn Ave & Dean St","lat":40.6767554781,"lng":-73.9443738765,"starts":1514},"4134.06":{"name":"Berkeley Pl & 6 Ave","lat":40.6766010384,"lng":-73.9784312139,"starts":2747},"4137.1":{"name":"Coffey St & Conover St","lat":40.6772590684,"lng":-74.0157061318,"starts":103},"4137.10":{"name":"Coffey St & Conover St","lat":40.6774029756,"lng":-74.015611351,"starts":1132},"4137.14":{"name":"Coffey St & Ferris St","lat":40.6782442198,"lng":-74.0169991231,"starts":1398},"4138.04":{"name":"Thomas S. Boyland St & Fulton St","lat":40.6785675512,"lng":-73.9136843481,"starts":380},"4140.03":{"name":"Pacific St & Nostrand Ave","lat":40.6776771714,"lng":-73.9495978298,"starts":2333},"4143.04":{"name":"3 Ave & Carroll St","lat":40.6770543409,"lng":-73.9864732455,"starts":1534},"4146.02":{"name":"Columbus Pl & Atlantic Ave","lat":40.6773958689,"lng":-73.9229866632,"starts":436},"4148.07":{"name":"Pacific St & Classon Ave","lat":40.6791921319,"lng":-73.9588451269,"starts":1680},"4151.01":{"name":"Smith St & 3 St","lat":40.6787285373,"lng":-73.9959745226,"starts":2416},"4154.02":{"name":"Pacific St & Utica Ave","lat":40.6767493722,"lng":-73.9306780675,"starts":379},"4157.1":{"name":"Bergen St & Vanderbilt Ave","lat":40.6794297827,"lng":-73.9678748698,"starts":622},"4157.10":{"name":"Bergen St & Vanderbilt Ave","lat":40.6794662565,"lng":-73.9680133149,"starts":5879},"4157.15":{"name":"Prospect Pl & Vanderbilt Ave","lat":40.6777291534,"lng":-73.9690244492,"starts":3671},"4161.01":{"name":"Van Sinderen Ave & Truxton St","lat":40.678723867,"lng":-73.9037413154,"starts":890},"4166.08":{"name":"Prospect Pl & 6 Ave","lat":40.6793690738,"lng":-73.9751423198,"starts":3007},"4169.04":{"name":"Pioneer St & Van Brunt St","lat":40.6791032088,"lng":-74.0111107232,"starts":1594},"4170.08":{"name":"Somers St & Rockaway Ave","lat":40.6789459525,"lng":-73.9112879156,"starts":496},"4172.04":{"name":"Herkimer St & New York Ave","lat":40.6795677697,"lng":-73.9471762182,"starts":990},"4175.14":{"name":"Douglass St & 4 Ave","lat":40.6792992845,"lng":-73.9815128869,"starts":3252},"4175.15":{"name":"Union St & 4 Ave","lat":40.6773077615,"lng":-73.9827316404,"starts":3008},"4179.03":{"name":"Fulton St & Saratoga Ave","lat":40.6785892771,"lng":-73.9164972531,"starts":313},"4181.1":{"name":"Brevoort Pl & Bedford Ave","lat":40.6801520562,"lng":-73.9536626405,"starts":138},"4181.10":{"name":"Brevoort Pl & Bedford Ave","lat":40.6801403362,"lng":-73.9535568766,"starts":1339},"4184.08":{"name":"President St & Hoyt St","lat":40.6801097436,"lng":-73.9916830563,"starts":1500},"4187.04":{"name":"Sumpter St & Fulton St","lat":40.6792771669,"lng":-73.9260225879,"starts":263},"4190.06":{"name":"Grand Ave & Bergen St","lat":40.6780814906,"lng":-73.9623630022,"starts":2564},"4193.14":{"name":"1 Pl & Clinton St","lat":40.6810543975,"lng":-73.9990437086,"starts":2516},"4196.01":{"name":"Lewis Ave & Fulton St","lat":40.6797986947,"lng":-73.9347095747,"starts":355},"4196.05":{"name":"Chauncey St & Stuyvesant Ave","lat":40.680123598,"lng":-73.9317425737,"starts":1557},"4199.12":{"name":"Carlton Ave & Dean St","lat":40.6810371982,"lng":-73.9709950922,"starts":4807},"4199.13":{"name":"Carlton Ave & St Marks Ave","lat":40.6792044779,"lng":-73.9717425556,"starts":1833},"4202.04":{"name":"Richards St & Delavan St","lat":40.6795863269,"lng":-74.0077097532,"starts":778},"4203.04":{"name":"Somers St & Broadway","lat":40.6796489971,"lng":-73.9049290563,"starts":149},"4205.06":{"name":"Kingston Ave & Herkimer St","lat":40.6789555772,"lng":-73.9414484852,"starts":1307},"4208.01":{"name":"Sterling Pl & 5 Ave","lat":40.6789625279,"lng":-73.9784542466,"starts":1822},"4212.01":{"name":"MacDougal St & Rockaway Ave","lat":40.6801900222,"lng":-73.9114048165,"starts":140},"4214.03":{"name":"Macon St & Nostrand Ave","lat":40.6810572614,"lng":-73.9500265916,"starts":2896},"4214.04":{"name":"Verona Pl & Fulton St","lat":40.6804357143,"lng":-73.9476850007,"starts":833},"4217.02":{"name":"Douglass St & 3 Ave","lat":40.6803152879,"lng":-73.9842950603,"starts":2926},"4217.06":{"name":"Degraw St & 3 Ave","lat":40.6798276061,"lng":-73.9847348873,"starts":2420},"4220.02":{"name":"Ralph Ave & Fulton St","lat":40.6793494637,"lng":-73.9219792106,"starts":711},"4222.02":{"name":"Lefferts Pl & Franklin Ave","lat":40.680411668,"lng":-73.9557641095,"starts":2384},"4225.14":{"name":"Carroll St & Smith St","lat":40.6807122472,"lng":-73.9947618705,"starts":4281},"4228.02":{"name":"Fulton St & Utica Ave","lat":40.6795145261,"lng":-73.9299737914,"starts":1324},"4228.06":{"name":"Chauncey St & Malcolm X Blvd","lat":40.6805436213,"lng":-73.9284744475,"starts":1080},"4231.04":{"name":"Underhill Ave & Pacific St","lat":40.6805741935,"lng":-73.964665315,"starts":3365},"4237.01":{"name":"Lewis Ave & Decatur St","lat":40.6815471194,"lng":-73.9349566247,"starts":822},"4237.02":{"name":"Albany Ave & Fulton St","lat":40.6800618678,"lng":-73.9385185351,"starts":1131},"4243.01":{"name":"Commerce St & Van Brunt St","lat":40.6812683863,"lng":-74.0086238232,"starts":829},"4244.06":{"name":"Broadway & Furman Ave","lat":40.6813719635,"lng":-73.9075302031,"starts":460},"4246.02":{"name":"MacDonough St & Marcy Ave","lat":40.6808309033,"lng":-73.9461329564,"starts":1596},"4249.01":{"name":"St Marks Pl & 4 Ave","lat":40.6820449195,"lng":-73.9803400657,"starts":1751},"4253.02":{"name":"Thomas S. Boyland St & Marion St","lat":40.6816009809,"lng":-73.9142287951,"starts":634},"4255.05":{"name":"Hancock St & Bedford Ave","lat":40.6822153133,"lng":-73.9539530756,"starts":2634},"4258.07":{"name":"Degraw St & Hoyt St","lat":40.6820980272,"lng":-73.9907511655,"starts":1839},"4261.03":{"name":"Patchen Ave & Bainbridge St","lat":40.6814132553,"lng":-73.9256647666,"starts":651},"4263.12":{"name":"Fulton St & Irving Pl","lat":40.6819753648,"lng":-73.9593953465,"starts":3202},"4266.03":{"name":"Clinton St & Union St","lat":40.6831779615,"lng":-73.9977709954,"starts":2992},"4278.03":{"name":"Marcus Garvey Blvd & Macon St","lat":40.6826704372,"lng":-73.9380873375,"starts":1920},"4281.08":{"name":"Bergen St & Flatbush Ave","lat":40.6810293569,"lng":-73.9757063536,"starts":5173},"4285.09":{"name":"Rockaway Ave & Bainbridge St","lat":40.6832803111,"lng":-73.9117325554,"starts":1073},"4290.06":{"name":"Wyckoff St & 3 Ave","lat":40.6828037251,"lng":-73.9825736322,"starts":1584},"4293.05":{"name":"Chauncey St & Howard Ave","lat":40.6815930264,"lng":-73.9195631802,"starts":734},"4298.05":{"name":"Degraw St & Smith St","lat":40.6830907078,"lng":-73.9931689077,"starts":2683},"4301.04":{"name":"Macon St & Patchen Ave","lat":40.6837994797,"lng":-73.9261157838,"starts":1034},"4301.07":{"name":"MacDonough St & Malcolm X Blvd","lat":40.6827057118,"lng":-73.9293409846,"starts":876},"4307.13":{"name":"President St & Henry St","lat":40.682811123,"lng":-73.9998687793,"starts":1868},"4310.06":{"name":"Macon St & Lewis Ave","lat":40.6828737251,"lng":-73.9348979837,"starts":1382},"4317.05":{"name":"Bushwick Ave & Furman Ave","lat":40.6828244203,"lng":-73.9062215554,"starts":425},"4319.07":{"name":"Halsey St & Tompkins Ave","lat":40.6824991774,"lng":-73.9441008277,"starts":3351},"4322.06":{"name":"Bergen St & 4 Ave","lat":40.682669014,"lng":-73.9798805413,"starts":3176},"4325.03":{"name":"Thomas S. Boyland St & Macon St","lat":40.6850253565,"lng":-73.9150898539,"starts":457},"4327.09":{"name":"Putnam Ave & Nostrand Ave","lat":40.6841076778,"lng":-73.9497703478,"starts":2242},"4330.09":{"name":"Hoyt St & Warren St","lat":40.6844166635,"lng":-73.9889814292,"starts":655},"4334.02":{"name":"Halsey St & Ralph Ave","lat":40.6851274572,"lng":-73.9229788807,"starts":859},"4336.01":{"name":"Monroe St & Classon Ave","lat":40.6846216056,"lng":-73.9588331755,"starts":1712},"4339.01":{"name":"Butler St & Court St","lat":40.6851608566,"lng":-73.9942884752,"starts":777},"4342.04":{"name":"Hancock St & Malcolm X Blvd","lat":40.6849833693,"lng":-73.929431805,"starts":1475},"4345.11":{"name":"Fulton St & Waverly Ave","lat":40.6833201464,"lng":-73.9660367272,"starts":4381},"4348.07":{"name":"Carroll St & Columbia St","lat":40.6830665847,"lng":-74.0034570434,"starts":2336},"4354.05":{"name":"S Portland Ave & Hanson Pl","lat":40.685409421,"lng":-73.9743017262,"starts":3504},"4354.07":{"name":"Atlantic Ave & Fort Greene Pl","lat":40.6838444006,"lng":-73.9763584384,"starts":4663},"4357.01":{"name":"Moffat St & Bushwick","lat":40.6845888901,"lng":-73.9093161671,"starts":637},"4362.04":{"name":"Pacific St & Nevins St","lat":40.6853757684,"lng":-73.9829130498,"starts":2403},"4366.01":{"name":"Halsey St & Broadway","lat":40.6856865976,"lng":-73.9156878007,"starts":689},"4366.1":{"name":"Decatur St & Saratoga Ave","lat":40.6833220383,"lng":-73.9171059842,"starts":60},"4366.10":{"name":"Decatur St & Saratoga Ave","lat":40.6833164839,"lng":-73.9170899318,"starts":581},"4368.05":{"name":"Monroe St & Bedford Ave","lat":40.6851952022,"lng":-73.9538421939,"starts":4227},"4371.01":{"name":"Warren St & Smith St","lat":40.685444286,"lng":-73.991221709,"starts":2681},"4374.01":{"name":"Picnic Point","lat":40.6851289445,"lng":-74.0253515259,"starts":971},"4375.02":{"name":"Jefferson Ave & Patchen Ave","lat":40.6860891482,"lng":-73.9262487194,"starts":722},"4377.04":{"name":"Cambridge Pl & Gates Ave","lat":40.6849892622,"lng":-73.9630825194,"starts":2959},"4380.08":{"name":"Henry St & Degraw St","lat":40.6847851915,"lng":-73.9991277046,"starts":2491},"4383.06":{"name":"Hancock St & Stuyvesant Ave","lat":40.6845624632,"lng":-73.9322295084,"starts":1194},"4386.05":{"name":"Fulton St & Clermont Ave","lat":40.6842408002,"lng":-73.9692862909,"starts":2732},"4392.04":{"name":"Putnam Ave & Throop Ave","lat":40.6852264869,"lng":-73.9411586438,"starts":2672},"4395.07":{"name":"Hanson Pl & Ashland Pl","lat":40.685118096,"lng":-73.9778055964,"starts":7772},"4399.03":{"name":"Eldert St & Bushwick Ave","lat":40.6867481147,"lng":-73.9133968124,"starts":701},"4401.04":{"name":"Marcy Ave & Gates Ave","lat":40.6866893904,"lng":-73.9474500762,"starts":112},"4404.1":{"name":"Bond St & Bergen St","lat":40.6853944156,"lng":-73.9860995723,"starts":297},"4404.10":{"name":"Bond St & Bergen St","lat":40.6849945663,"lng":-73.9861930169,"starts":2435},"4408.07":{"name":"Macon St & Howard Ave","lat":40.6846533836,"lng":-73.9201203032,"starts":1044},"4410.02":{"name":"Franklin Ave & Quincy St","lat":40.6864135207,"lng":-73.9567753103,"starts":978},"4413.08":{"name":"Warren St & Court St","lat":40.6864363342,"lng":-73.9937571111,"starts":2524},"4416.1":{"name":"Madison St & Malcolm X Blvd","lat":40.6871256853,"lng":-73.9301076353,"starts":111},"4416.10":{"name":"Madison St & Malcolm X Blvd","lat":40.6871385679,"lng":-73.9301547154,"starts":1138},"4422.04":{"name":"Columbia St & Degraw St","lat":40.6860035586,"lng":-74.002400956,"starts":2035},"4422.05":{"name":"Columbia St & Kane St","lat":40.6876639996,"lng":-74.0015878698,"starts":1178},"4425.02":{"name":"Lewis Ave & Madison St","lat":40.6863904722,"lng":-73.9357903503,"starts":1991},"4428.02":{"name":"Cumberland St & Lafayette Ave","lat":40.687584654,"lng":-73.9726606561,"starts":3575},"4432.1":{"name":"Central Ave & Decatur St","lat":40.6882022418,"lng":-73.9079191172,"starts":51},"4432.10":{"name":"Central Ave & Decatur St","lat":40.6882555211,"lng":-73.9080892357,"starts":720},"4434.06":{"name":"Monroe St & Tompkins Ave","lat":40.686216421,"lng":-73.9447324462,"starts":3204},"4437.01":{"name":"3 Ave & Schermerhorn St","lat":40.6868413786,"lng":-73.979682403,"starts":2938},"4437.09":{"name":"Nevins St & Schermerhorn St","lat":40.6874194583,"lng":-73.9817512729,"starts":2819},"4440.02":{"name":"Yankee Ferry Terminal","lat":40.6870673153,"lng":-74.0167521083,"starts":2141},"4441.06":{"name":"Broadway & Hancock St","lat":40.6867739459,"lng":-73.9169206775,"starts":908},"4446.01":{"name":"Bergen St & Smith St","lat":40.6867969235,"lng":-73.9906673936,"starts":5431},"4446.03":{"name":"Pacific St & Smith St","lat":40.6879168279,"lng":-73.989321987,"starts":2775},"4446.05":{"name":"Dean St & Hoyt St","lat":40.6864358097,"lng":-73.9875395351,"starts":2139},"4450.06":{"name":"Putnam Ave & Ralph Ave","lat":40.6871090877,"lng":-73.9233474144,"starts":1415},"4452.01":{"name":"Lafayette Ave & Classon Ave","lat":40.6890998549,"lng":-73.960268793,"starts":640},"4452.03":{"name":"Lexington Ave & Classon Ave","lat":40.6868254378,"lng":-73.9592942728,"starts":3874},"4455.1":{"name":"Congress St & Clinton St","lat":40.6882755904,"lng":-73.9954280188,"starts":404},"4455.10":{"name":"Congress St & Clinton St","lat":40.6883094522,"lng":-73.9954570747,"starts":3157},"4455.11":{"name":"Kane St & Clinton St","lat":40.6862297641,"lng":-73.9964697021,"starts":2678},"4458.06":{"name":"Stuyvesant Ave & Gates Ave","lat":40.688417583,"lng":-73.9330892125,"starts":1004},"4461.01":{"name":"Clermont Ave & Lafayette Ave","lat":40.6876601799,"lng":-73.9696941159,"starts":3666},"4461.04":{"name":"DeKalb Ave & Vanderbilt Ave","lat":40.689477061,"lng":-73.9688642779,"starts":5036},"4461.07":{"name":"Waverly Ave & Lafayette Ave","lat":40.6883822375,"lng":-73.9668240088,"starts":1392},"4467.03":{"name":"Monroe St & Marcus Garvey Blvd","lat":40.6868463506,"lng":-73.9390952877,"starts":1727},"4470.09":{"name":"Lafayette Ave & Ft Greene Pl","lat":40.687083364,"lng":-73.9766935435,"starts":5837},"4474.01":{"name":"Halsey St & Evergreen Ave","lat":40.6886660923,"lng":-73.9122579619,"starts":697},"4476.03":{"name":"Marcy Ave & Lafayette Ave","lat":40.6901578137,"lng":-73.9479584717,"starts":2888},"4479.06":{"name":"Bond St & Fulton St","lat":40.6896133526,"lng":-73.983044799,"starts":5221},"4479.1":{"name":"Schermerhorn St & Hoyt St","lat":40.6887702733,"lng":-73.9852850614,"starts":681},"4479.10":{"name":"Schermerhorn St & Hoyt St","lat":40.6887160392,"lng":-73.9852382328,"starts":5367},"4483.1":{"name":"Broadway & Madison St","lat":40.6883230261,"lng":-73.9202248638,"starts":157},"4483.10":{"name":"Broadway & Madison St","lat":40.6882333944,"lng":-73.9197268408,"starts":1543},"4488.08":{"name":"Court St & State St","lat":40.690231912,"lng":-73.9920603977,"starts":5431},"4491.09":{"name":"Monroe St & Patchen Ave","lat":40.6882041459,"lng":-73.9269864888,"starts":1206},"4494.04":{"name":"Lafayette Ave & St James Pl","lat":40.6886115541,"lng":-73.9647753177,"starts":4013},"4497.09":{"name":"Congress St & Hicks St","lat":40.6894086014,"lng":-73.9994664418,"starts":1777},"4500.07":{"name":"Lexington Ave & Stuyvesant Ave","lat":40.6898815436,"lng":-73.9336618946,"starts":1087},"4507.07":{"name":"Wilson Ave & Moffat St","lat":40.6893782597,"lng":-73.9052360958,"starts":953},"4510.04":{"name":"Greene Ave & Throop Ave","lat":40.6895467454,"lng":-73.9420810081,"starts":2563},"4513.06":{"name":"DeKalb Ave & Hudson Ave","lat":40.6899119472,"lng":-73.980973977,"starts":3891},"4513.09":{"name":"Ashland Pl & Dekalb Ave","lat":40.6901440891,"lng":-73.9787595164,"starts":2006},"4517.03":{"name":"Jefferson Ave & Evergreen Ave","lat":40.6899371011,"lng":-73.9146115094,"starts":1019},"4519.02":{"name":"Greene Ave & Nostrand Ave","lat":40.6884372585,"lng":-73.9509424058,"starts":3066},"4519.04":{"name":"Kosciuszko St & Nostrand Ave","lat":40.6907932291,"lng":-73.9513520812,"starts":2540},"4522.07":{"name":"State St & Smith St","lat":40.6892100123,"lng":-73.9885171892,"starts":2989},"4526.01":{"name":"Grove St & Broadway","lat":40.6905528378,"lng":-73.9235227681,"starts":1742},"4528.01":{"name":"DeKalb Ave & Franklin Ave","lat":40.6907101648,"lng":-73.9574790272,"starts":3161},"4531.05":{"name":"Henry St & Atlantic Ave","lat":40.6909533891,"lng":-73.9960943771,"starts":4120},"4534.06":{"name":"Lexington Ave & Patchen Ave","lat":40.6904533137,"lng":-73.9277700847,"starts":1177},"4543.07":{"name":"Lewis Ave & Greene Ave","lat":40.6899662572,"lng":-73.9365065474,"starts":1714},"4546.05":{"name":"Washington Park","lat":40.6918917247,"lng":-73.9737220683,"starts":3569},"4546.06":{"name":"DeKalb Ave & S Portland Ave","lat":40.6896881221,"lng":-73.9752850208,"starts":4428},"4550.05":{"name":"Central Ave & Covert St","lat":40.6893583753,"lng":-73.9096081165,"starts":886},"4553.04":{"name":"Kosciuszko St & Tompkins Ave","lat":40.6912954326,"lng":-73.9452642047,"starts":2553},"4560.01":{"name":"Madison St & Evergreen Ave","lat":40.6912510846,"lng":-73.9169212555,"starts":952},"4562.02":{"name":"DeKalb Ave & Bedford Ave","lat":40.6909641701,"lng":-73.9551814362,"starts":1248},"4565.07":{"name":"Schermerhorn St & Court St","lat":40.6911071641,"lng":-73.9920266075,"starts":2943},"4568.01":{"name":"Van Buren St & Broadway","lat":40.6920399021,"lng":-73.9262244202,"starts":997},"4576.11":{"name":"Lafayette Ave & Stuyvesant Ave","lat":40.6920204142,"lng":-73.9326034716,"starts":1020},"4582.08":{"name":"Knickerbocker Ave & Moffat St","lat":40.6904972423,"lng":-73.9039787625,"starts":578},"4587.02":{"name":"Willoughby St & Ashland Pl","lat":40.6917974276,"lng":-73.9787706456,"starts":1114},"4590.01":{"name":"Soissons Landing","lat":40.692322727,"lng":-74.0148636446,"starts":2335},"4591.04":{"name":"Central Ave & Weirfield St","lat":40.6906105327,"lng":-73.9120189101,"starts":985},"4593.05":{"name":"Marcy Ave & Hart St","lat":40.6930430556,"lng":-73.9487436785,"starts":935},"4596.05":{"name":"Duffield St & Willoughby St","lat":40.6922676622,"lng":-73.9843305908,"starts":3772},"4596.09":{"name":"Lawrence St & Willoughby St","lat":40.6924322459,"lng":-73.9862516308,"starts":4232},"4600.09":{"name":"Bushwick Ave & Linden St","lat":40.6915635427,"lng":-73.921601421,"starts":1743},"4605.04":{"name":"Clinton St & Joralemon St","lat":40.6924872204,"lng":-73.9932770905,"starts":4245},"4608.01":{"name":"Broadway & Kosciuszko St","lat":40.6934046544,"lng":-73.9286179543,"starts":1341},"4611.03":{"name":"Willoughby Ave & Hall St","lat":40.6920273217,"lng":-73.9653454211,"starts":4107},"4614.04":{"name":"Atlantic Ave & Furman St","lat":40.6917480421,"lng":-73.9999727288,"starts":6429},"4615.01":{"name":"Wyckoff Ave & Cooper Ave","lat":40.6934469549,"lng":-73.9006353749,"starts":743},"4617.01":{"name":"Lewis Ave & Kosciuszko St","lat":40.6924018487,"lng":-73.9370867282,"starts":1465},"4620.02":{"name":"Adelphi St & Myrtle Ave","lat":40.6930955144,"lng":-73.9717789388,"starts":4125},"4623.02":{"name":"Knickerbocker Ave & Halsey St","lat":40.6930201748,"lng":-73.9082690246,"starts":952},"4625.01":{"name":"Pulaski St & Throop Ave","lat":40.6931504989,"lng":-73.9431847588,"starts":990},"4628.05":{"name":"Willoughby St & Fleet St","lat":40.6919905587,"lng":-73.9812957213,"starts":3526},"4628.07":{"name":"Myrtle Ave & Fleet Pl","lat":40.6935740914,"lng":-73.9819434769,"starts":2796},"4632.1":{"name":"Central Ave & Woodbine St","lat":40.6929585767,"lng":-73.9160466053,"starts":136},"4632.10":{"name":"Central Ave & Woodbine St","lat":40.6929972779,"lng":-73.9161811014,"starts":1484},"4634.02":{"name":"Willoughby Ave & Walworth St","lat":40.6933323553,"lng":-73.9538157614,"starts":2022},"4637.06":{"name":"Fulton St & Adams St","lat":40.6925064235,"lng":-73.989499138,"starts":5587},"4640.01":{"name":"Bushwick Ave & Harman St","lat":40.6936285957,"lng":-73.9253076895,"starts":1636},"4645.04":{"name":"Henry St & Remsen St","lat":40.6939810368,"lng":-73.994655876,"starts":2230},"4645.09":{"name":"Hicks St & Montague St","lat":40.6951573288,"lng":-73.9959030047,"starts":3664},"4648.03":{"name":"Malcolm X Blvd & DeKalb Ave","lat":40.6939395079,"lng":-73.9312420645,"starts":1495},"4651.02":{"name":"Clinton Ave & Myrtle Ave","lat":40.6933046081,"lng":-73.9688612778,"starts":5120},"4654.01":{"name":"Norman St & Wyckoff Ave","lat":40.6952141246,"lng":-73.9031197798,"starts":1305},"4656.03":{"name":"Pulaski St & Marcus Garvey Blvd","lat":40.6934440441,"lng":-73.9398979479,"starts":1632},"4659.02":{"name":"Myrtle Ave & St Edwards St","lat":40.6933276831,"lng":-73.9769859352,"starts":1779},"4663.02":{"name":"Knickerbocker Ave & Hancock St","lat":40.6941260431,"lng":-73.9098224921,"starts":1167},"4663.06":{"name":"Putnam Ave & Knickerbocker Ave","lat":40.695550144,"lng":-73.9118674526,"starts":1002},"4665.02":{"name":"Willoughby Ave & Tompkins Ave","lat":40.6942631636,"lng":-73.9463041172,"starts":2451},"4668.08":{"name":"Johnson St & Gold St","lat":40.6947960498,"lng":-73.983545062,"starts":2139},"4672.01":{"name":"Menahan St & Central Ave","lat":40.6955516213,"lng":-73.9196431873,"starts":968},"4677.01":{"name":"Cadman Plaza E & Tillary St","lat":40.6960063466,"lng":-73.9900998191,"starts":2247},"4677.06":{"name":"Montague St & Clinton St","lat":40.6942621383,"lng":-73.9921976337,"starts":3963},"4680.05":{"name":"Bushwick Ave & Dekalb Ave","lat":40.6950617031,"lng":-73.9283464316,"starts":1254},"4683.02":{"name":"Emerson Pl & Myrtle Ave","lat":40.6936437086,"lng":-73.9622301076,"starts":4346},"4687.03":{"name":"Cypress Ave & St Felix Ave","lat":40.6956064644,"lng":-73.8992717945,"starts":202},"4689.03":{"name":"Suydam St & Broadway","lat":40.6955287125,"lng":-73.9322694441,"starts":1868},"4689.08":{"name":"Stuyvesant Ave & Hart St","lat":40.6947523391,"lng":-73.9343403598,"starts":1041},"4692.01":{"name":"Clermont Ave & Park Ave","lat":40.6957862008,"lng":-73.9713403206,"starts":1716},"4695.04":{"name":"Irving Ave & Halsey St","lat":40.6946964082,"lng":-73.9066849152,"starts":1238},"4697.01":{"name":"Throop Ave & Myrtle Ave","lat":40.6962222559,"lng":-73.9436947172,"starts":990},"4700.06":{"name":"Park Ave & St Edwards St","lat":40.6961008088,"lng":-73.9780159466,"starts":797},"4707.03":{"name":"Myrtle Ave & Marcy Ave","lat":40.6954491093,"lng":-73.9496533081,"starts":1644},"4707.04":{"name":"Nostrand Ave & Myrtle Ave","lat":40.695386886,"lng":-73.9524273489,"starts":1366},"4710.06":{"name":"Jay St & Tech Pl","lat":40.6951247824,"lng":-73.9871400681,"starts":3314},"4713.01":{"name":"Central Ave & Himrod St","lat":40.6968227405,"lng":-73.9230913664,"starts":1363},"4715.01":{"name":"Franklin Ave & Myrtle Ave","lat":40.6945531314,"lng":-73.9580224543,"starts":1193},"4718.08":{"name":"Pierrepont St & Monroe Pl","lat":40.695401262,"lng":-73.9934665133,"starts":1936},"4719.04":{"name":"St Felix Ave & 61 St","lat":40.6971547994,"lng":-73.8935926554,"starts":528},"4721.01":{"name":"Cedar St & Evergreen Ave","lat":40.6967160266,"lng":-73.9280729071,"starts":1104},"4724.03":{"name":"Washington Ave & Park Ave","lat":40.6961952961,"lng":-73.9674877779,"starts":3614},"4727.06":{"name":"Summerfield St & Cypress Ave","lat":40.6966311349,"lng":-73.9006538386,"starts":278},"4729.01":{"name":"Myrtle Ave & Lewis Ave","lat":40.6968592789,"lng":-73.9376256887,"starts":2185},"4732.04":{"name":"Carlton Ave & Park Ave","lat":40.6958211134,"lng":-73.9735426094,"starts":1366},"4732.08":{"name":"Carlton Ave & Flushing Ave","lat":40.6977864729,"lng":-73.973738653,"starts":1955},"4735.03":{"name":"Putnam Ave & Wyckoff Ave","lat":40.6981014859,"lng":-73.9091962315,"starts":1001},"4735.16":{"name":"Hancock St & Wyckoff Ave","lat":40.6972505813,"lng":-73.9068318963,"starts":787},"4743.04":{"name":"Linden St & Knickerbocker Ave","lat":40.6971328539,"lng":-73.9157155942,"starts":577},"4748.07":{"name":"Clinton St & Tillary St","lat":40.6962855687,"lng":-73.991376628,"starts":3473},"4751.01":{"name":"Cedar St & Myrtle Ave","lat":40.6978720162,"lng":-73.9263025939,"starts":1547},"4756.04":{"name":"Brooklyn Bridge Park - Pier 2","lat":40.6985095568,"lng":-73.9971334162,"starts":3459},"4757.06":{"name":"Seneca Ave & Decatur St","lat":40.6972287049,"lng":-73.8982389549,"starts":187},"4759.02":{"name":"Willoughby Ave & Myrtle Ave","lat":40.697632745,"lng":-73.9310334871,"starts":2737},"4762.04":{"name":"Clinton Ave & Flushing Ave","lat":40.6979589829,"lng":-73.9698578726,"starts":1691},"4762.05":{"name":"Flushing Ave & Vanderbilt Ave","lat":40.6979975632,"lng":-73.9707760962,"starts":3797},"4765.07":{"name":"Cypress Ave & George St","lat":40.6981378434,"lng":-73.9027374032,"starts":259},"4768.02":{"name":"Park Ave & Marcus Garvey Blvd","lat":40.6986248902,"lng":-73.941405689,"starts":1392},"4771.07":{"name":"N Portland Ave & Flushing Ave","lat":40.6980008888,"lng":-73.9765625005,"starts":885},"4775.01":{"name":"Irving Ave & Palmetto St","lat":40.6980348068,"lng":-73.9127305576,"starts":901},"4778.03":{"name":"Park Ave & Marcy Ave","lat":40.697589163,"lng":-73.948845859,"starts":87},"4781.03":{"name":"Concord St & Bridge St","lat":40.6977297331,"lng":-73.9847376224,"starts":1909},"4781.05":{"name":"Nassau St & Duffield St","lat":40.6985046895,"lng":-73.9837525821,"starts":1810},"4784.02":{"name":"Greene Ave & Myrtle Ave","lat":40.6985799281,"lng":-73.9190246623,"starts":1613},"4789.03":{"name":"Clark St & Henry St","lat":40.6976303756,"lng":-73.9934186462,"starts":5679},"4792.03":{"name":"Central Ave & Starr St","lat":40.7000666607,"lng":-73.9284618607,"starts":2144},"4798.02":{"name":"Forest Ave & Summerfield St","lat":40.6992176246,"lng":-73.897978099,"starts":451},"4798.1":{"name":"Stephen St & Seneca Ave","lat":40.6988090779,"lng":-73.9006965214,"starts":18},"4798.10":{"name":"Stephen St & Seneca Ave","lat":40.6988237858,"lng":-73.9006974096,"starts":282},"4801.04":{"name":"Melrose St & Broadway","lat":40.6975402167,"lng":-73.935866508,"starts":3347},"4804.02":{"name":"Dock 72 Way & Market St","lat":40.6998775121,"lng":-73.9713729257,"starts":2171},"4807.02":{"name":"Madison St & Cypress Ave","lat":40.7007064337,"lng":-73.9076135636,"starts":835},"4812.02":{"name":"Nassau St & Navy St","lat":40.6985147049,"lng":-73.980712667,"starts":2144},"4812.04":{"name":"Sands St Gate","lat":40.6995545633,"lng":-73.9798341622,"starts":2114},"4816.02":{"name":"Myrtle Ave & Linden St","lat":40.6994628546,"lng":-73.9135707408,"starts":464},"4816.05":{"name":"Myrtle Ave & Grove St","lat":40.6991624193,"lng":-73.9151796257,"starts":693},"4818.02":{"name":"Nostrand Ave & Flushing Ave","lat":40.6992922832,"lng":-73.95329048,"starts":637},"4818.03":{"name":"Union Ave & Wallabout St","lat":40.7003785628,"lng":-73.9503201369,"starts":940},"4821.03":{"name":"Sands St & Jay St","lat":40.7001520196,"lng":-73.9861571095,"starts":3175},"4821.06":{"name":"Cadman Plaza E & Red Cross Pl","lat":40.6999377134,"lng":-73.9897165272,"starts":2392},"4821.1":{"name":"Adams St & Prospect St","lat":40.7009157855,"lng":-73.9886963344,"starts":207},"4821.10":{"name":"Adams St & Prospect St","lat":40.7008549729,"lng":-73.9886551865,"starts":2289},"4824.03":{"name":"Stockholm St & Wilson Ave","lat":40.6993369062,"lng":-73.9230402523,"starts":2032},"4826.04":{"name":"Wallabout St & Kent Ave","lat":40.6992127149,"lng":-73.9606845411,"starts":714},"4829.01":{"name":"Columbia Heights & Cranberry St","lat":40.700415815,"lng":-73.9953998259,"starts":2563},"4830.02":{"name":"61 St & 60 Ln","lat":40.7005684552,"lng":-73.8943526429,"starts":423},"4832.07":{"name":"Central Ave & Melrose St","lat":40.7011006719,"lng":-73.9304607477,"starts":1229},"4837.03":{"name":"Centre St & Seneca Ave","lat":40.6997672326,"lng":-73.9024702942,"starts":656},"4840.06":{"name":"Beaver St & Fayette St","lat":40.7009960162,"lng":-73.9392048035,"starts":1727},"4843.01":{"name":"5 St & Market St","lat":40.699968732,"lng":-73.9744471669,"starts":1201},"4846.01":{"name":"South St & Whitehall St","lat":40.7012280544,"lng":-74.0123235694,"starts":4424},"4847.03":{"name":"Wyckoff Ave & Gates Ave","lat":40.6999177416,"lng":-73.9117118813,"starts":2688},"4850.04":{"name":"Tompkins Ave & Hopkins St","lat":40.6996134415,"lng":-73.9471391976,"starts":1397},"4853.06":{"name":"Bridge St & York St","lat":40.7012754462,"lng":-73.98469092,"starts":1382},"4856.05":{"name":"Irving Ave & Harman St","lat":40.701100469,"lng":-73.9179924382,"starts":1494},"4861.05":{"name":"Henry St & Middagh St","lat":40.7003898817,"lng":-73.9915316648,"starts":1962},"4862.04":{"name":"Myrtle Ave & 65 St","lat":40.7013121408,"lng":-73.8906518034,"starts":669},"4862.07":{"name":"Cooper Ave & 65 Pl","lat":40.6993816349,"lng":-73.8888529557,"starts":323},"4864.09":{"name":"Wilson Ave & Troutman St","lat":40.70173006,"lng":-73.927594355,"starts":2454},"4871.02":{"name":"71 Ave & Myrtle Ave","lat":40.7006515245,"lng":-73.8992066904,"starts":902},"4873.08":{"name":"Evergreen Ave & Noll St","lat":40.7011087879,"lng":-73.9332550339,"starts":1903},"4880.11":{"name":"Madison St & Seneca Ave","lat":40.7019299013,"lng":-73.9063554384,"starts":742},"4883.03":{"name":"Broadway & Whipple St","lat":40.7016882495,"lng":-73.9437549232,"starts":2474},"4889.06":{"name":"Bus Slip & State St","lat":40.7018933095,"lng":-74.0138924792,"starts":3662},"4890.11":{"name":"Menahan St & Wyckoff Ave","lat":40.7012244611,"lng":-73.9142632148,"starts":885},"4892.02":{"name":"Lorimer St & Harrison Ave","lat":40.702736549,"lng":-73.9498323112,"starts":178},"4895.03":{"name":"Front St & Jay St","lat":40.7025021122,"lng":-73.986894087,"starts":4824},"4895.09":{"name":"Jay St & York St","lat":40.7013734107,"lng":-73.9866902661,"starts":4405},"4895.15":{"name":"Pearl St & York St","lat":40.7013676429,"lng":-73.9876632231,"starts":2309},"4898.02":{"name":"Irving Ave & DeKalb Ave","lat":40.7027464928,"lng":-73.9210423154,"starts":1663},"4903.08":{"name":"Old Fulton St","lat":40.7027638391,"lng":-73.9937726837,"starts":3274},"4903.09":{"name":"Dock St & Front St","lat":40.7027626689,"lng":-73.9925112283,"starts":3371},"4904.03":{"name":"Cypress Hills St & Otto Rd","lat":40.7020231508,"lng":-73.8929077605,"starts":275},"4906.07":{"name":"George St & Wilson Ave","lat":40.7030184467,"lng":-73.9300400201,"starts":1651},"4912.1":{"name":"Catalpa Ave & Woodward Ave","lat":40.7028546705,"lng":-73.9035914733,"starts":95},"4912.10":{"name":"Catalpa Ave & Woodward Ave","lat":40.702284835,"lng":-73.9016705034,"starts":1144},"4914.03":{"name":"Bushwick Ave & Forrest St","lat":40.7008150459,"lng":-73.9364811244,"starts":1646},"4920.13":{"name":"South St & Broad St","lat":40.7020246004,"lng":-74.0105674741,"starts":291},"4921.04":{"name":"Cypress Ave & Palmetto St","lat":40.701588152,"lng":-73.9089543288,"starts":417},"4927.04":{"name":"Front St & Gold St","lat":40.7022735573,"lng":-73.9825637871,"starts":2472},"4931.05":{"name":"Wyckoff Ave & Stanhope St","lat":40.7035680602,"lng":-73.9179344964,"starts":2802},"4933.03":{"name":"Marcy Ave & Lynch St","lat":40.7027647924,"lng":-73.9531827039,"starts":146},"4933.04":{"name":"Marcy Ave & Rutledge St","lat":40.7035178756,"lng":-73.9542985187,"starts":230},"4936.21":{"name":"Main St & Plymouth St","lat":40.7037589488,"lng":-73.9906584503,"starts":5732},"4939.07":{"name":"Suydam St & Knickerbocker Ave","lat":40.702051971,"lng":-73.9238556152,"starts":3059},"4945.06":{"name":"Fresh Pond Rd & 69 Ave","lat":40.7031030539,"lng":-73.8954621075,"starts":565},"4947.04":{"name":"Central Ave & Flushing Ave","lat":40.702823595,"lng":-73.933309328,"starts":1137},"4953.04":{"name":"South St & Gouverneur Ln","lat":40.7035703382,"lng":-74.0066648307,"starts":4853},"4954.07":{"name":"Madison St & Woodward Ave","lat":40.7041970603,"lng":-73.9043200228,"starts":1005},"4956.02":{"name":"Humboldt St & Varet St","lat":40.7032195089,"lng":-73.940705889,"starts":1214},"4962.01":{"name":"Broadway & Battery Pl","lat":40.7046681367,"lng":-74.0135379839,"starts":3234},"4962.08":{"name":"Broad St & Bridge St","lat":40.7037515055,"lng":-74.0115315197,"starts":2259},"4963.13":{"name":"Menahan St & Seneca Ave","lat":40.7046741282,"lng":-73.910661393,"starts":937},"4965.01":{"name":"Lorimer St & Broadway","lat":40.7041298983,"lng":-73.9482507586,"starts":1151},"4968.03":{"name":"Bridge St & Water St","lat":40.7028844173,"lng":-73.9846549838,"starts":3316},"4971.01":{"name":"Hart St & Wyckoff Ave","lat":40.7048917788,"lng":-73.91995247,"starts":1206},"4977.03":{"name":"65 St & Otto Rd","lat":40.7040068505,"lng":-73.8915116093,"starts":412},"4979.07":{"name":"Knickerbocker Ave & George St","lat":40.7044220349,"lng":-73.9283586215,"starts":1939},"4982.02":{"name":"Taylor St & Bedford Ave","lat":40.705773565,"lng":-73.9633059214,"starts":573},"4985.09":{"name":"60 Pl & 67 Ave","lat":40.7049881558,"lng":-73.8996365842,"starts":270},"4987.06":{"name":"White St & Moore St","lat":40.7045233862,"lng":-73.9350736879,"starts":1697},"4990.02":{"name":"Railroad Ave & Kay Ave","lat":40.7052000918,"lng":-73.9708384403,"starts":228},"4993.02":{"name":"Pearl St & Hanover Square","lat":40.7048038767,"lng":-74.0092016213,"starts":4295},"4993.13":{"name":"Old Slip & South St","lat":40.7035016119,"lng":-74.007785265,"starts":4048},"4993.15":{"name":"Water St & Gouverneur Ln","lat":40.7047824827,"lng":-74.0079540366,"starts":2316},"4994.1":{"name":"Onderdonk Ave & Gates Ave","lat":40.7040544956,"lng":-73.9073564598,"starts":66},"4994.10":{"name":"Onderdonk Ave & Gates Ave","lat":40.7042029659,"lng":-73.9074334903,"starts":888},"4996.08":{"name":"McKibbin St & Manhattan Ave","lat":40.7051050875,"lng":-73.9440903951,"starts":2242},"5001.08":{"name":"Little West St & 1 Pl","lat":40.7057446203,"lng":-74.0167607013,"starts":5432},"5002.09":{"name":"Harman St & Seneca Ave","lat":40.7058068683,"lng":-73.9131322874,"starts":841},"5004.02":{"name":"Boerum St & Broadway","lat":40.7053852096,"lng":-73.9498060846,"starts":2010},"5010.02":{"name":"Willoughby Ave & Wyckoff Ave","lat":40.7056094402,"lng":-73.9215935622,"starts":2694},"5018.06":{"name":"Knickerbocker Ave & Thames St","lat":40.7054334567,"lng":-73.9298765861,"starts":1761},"5021.05":{"name":"Kent Ave & Division Ave","lat":40.7064991647,"lng":-73.9682973698,"starts":2586},"5024.1":{"name":"Water St & Fletcher St","lat":40.7069326653,"lng":-74.0053420652,"starts":458},"5024.10":{"name":"Water St & Fletcher St","lat":40.7065601553,"lng":-74.0054970923,"starts":4955},"5025.02":{"name":"Madison St & Forest Ave","lat":40.7056541977,"lng":-73.902618447,"starts":837},"5027.02":{"name":"Bushwick Ave & McKibbin St","lat":40.7055854,"lng":-73.9393983542,"starts":1201},"5033.01":{"name":"Broadway & Morris St","lat":40.706063914,"lng":-74.0131115934,"starts":4508},"5034.03":{"name":"Menahan St & Onderdonk Ave","lat":40.7056573717,"lng":-73.9096839593,"starts":1097},"5036.06":{"name":"Leonard St & Boerum St","lat":40.7058894171,"lng":-73.9464661262,"starts":1884},"5043.06":{"name":"Suydam St & St Nicholas Ave","lat":40.7064372198,"lng":-73.919482085,"starts":937},"5045.05":{"name":"Division Ave & Hooper St","lat":40.7069668837,"lng":-73.954406795,"starts":2004},"5051.01":{"name":"Wyckoff Ave & Jefferson St","lat":40.707212677,"lng":-73.9238222202,"starts":2757},"5051.02":{"name":"Irving Ave & Jefferson St","lat":40.7054334382,"lng":-73.9254999342,"starts":2189},"5053.01":{"name":"Lee Ave & Taylor St","lat":40.7067527123,"lng":-73.9612692935,"starts":304},"5057.07":{"name":"67 Ave & Fresh Pond Rd","lat":40.7057940545,"lng":-73.8970227203,"starts":824},"5057.09":{"name":"64 St & Woodbine St","lat":40.708395852,"lng":-73.8957117635,"starts":479},"5059.02":{"name":"McKibbin St & Bogart St","lat":40.7062965263,"lng":-73.9339674233,"starts":2669},"5065.1":{"name":"Maiden Ln & Pearl St","lat":40.7071668331,"lng":-74.007297336,"starts":357},"5065.10":{"name":"Maiden Ln & Pearl St","lat":40.7071992313,"lng":-74.0071911517,"starts":3224},"5065.12":{"name":"William St & Pine St","lat":40.7072557967,"lng":-74.0087980703,"starts":3864},"5065.14":{"name":"Cliff St & Fulton St","lat":40.7084331723,"lng":-74.0049027626,"starts":4855},"5066.03":{"name":"Fairview Ave & Linden St","lat":40.706943206,"lng":-73.906306808,"starts":992},"5068.02":{"name":"Montrose Ave & Bushwick Ave","lat":40.707721168,"lng":-73.940227457,"starts":5509},"5073.07":{"name":"Greenwich St & Rector St","lat":40.7081844653,"lng":-74.0134284904,"starts":2778},"5074.08":{"name":"Woodward Ave & Harman St","lat":40.7079845281,"lng":-73.9110475166,"starts":966},"5076.04":{"name":"Scholes St & Lorimer St","lat":40.7083528447,"lng":-73.9488212704,"starts":2768},"5082.08":{"name":"Jefferson St & Cypress Ave","lat":40.7090401034,"lng":-73.9215884287,"starts":1838},"5084.03":{"name":"Division Ave & Marcy Ave","lat":40.7070830833,"lng":-73.9579721336,"starts":919},"5090.06":{"name":"Harrison Pl & Porter Ave","lat":40.7069604264,"lng":-73.9286436561,"starts":1078},"5093.01":{"name":"Bedford Ave & S 9 St","lat":40.7085489253,"lng":-73.9641555655,"starts":1522},"5096.12":{"name":"Peck Slip & South St","lat":40.7075915472,"lng":-74.0010833505,"starts":4761},"5097.02":{"name":"60 Pl & Linden St","lat":40.7088347512,"lng":-73.9017812867,"starts":436},"5099.02":{"name":"Waterbury St & Stagg St","lat":40.7101790602,"lng":-73.9374669917,"starts":1846},"5099.03":{"name":"White St & Johnson Ave","lat":40.707311964,"lng":-73.9358632768,"starts":570},"5105.01":{"name":"Liberty St & Broadway","lat":40.7090569749,"lng":-74.010349037,"starts":5985},"5105.09":{"name":"Liberty St & Nassau St","lat":40.7085327235,"lng":-74.0093015458,"starts":1953},"5106.04":{"name":"Greene Ave & Grandview Ave","lat":40.709659275,"lng":-73.9079724115,"starts":813},"5108.01":{"name":"Scholes St & Manhattan Ave","lat":40.7087308765,"lng":-73.9448821934,"starts":4477},"5114.06":{"name":"West Thames St","lat":40.7084021112,"lng":-74.0170812113,"starts":4822},"5114.08":{"name":"South End Ave & Albany St","lat":40.7099078212,"lng":-74.0163590621,"starts":5253},"5115.01":{"name":"Onderdonk Ave & Dekalb Ave","lat":40.7086799514,"lng":-73.915234151,"starts":814},"5115.05":{"name":"Willoughby Ave & Onderdonk Ave","lat":40.7098372951,"lng":-73.91740561,"starts":745},"5117.05":{"name":"Stagg St & Union Ave","lat":40.7088006118,"lng":-73.9509874681,"starts":3572},"5123.07":{"name":"Stewart Ave & Johnson Ave","lat":40.7087772148,"lng":-73.9259811862,"starts":1069},"5125.03":{"name":"S 5 Pl & S 5 St","lat":40.7104464197,"lng":-73.960905025,"starts":3956},"5125.07":{"name":"Broadway & Roebling St","lat":40.7093167009,"lng":-73.9606199275,"starts":3446},"5128.04":{"name":"Catherine St & Monroe St","lat":40.7111832006,"lng":-73.9967767461,"starts":2642},"5129.01":{"name":"Palmetto St & Traffic Ave","lat":40.7092794316,"lng":-73.8944405444,"starts":154},"5134.09":{"name":"Broadway & Kent Ave","lat":40.7109104668,"lng":-73.9682708561,"starts":6433},"5137.1":{"name":"Spruce St & Nassau St","lat":40.7114765569,"lng":-74.0055388151,"starts":266},"5137.10":{"name":"Spruce St & Nassau St","lat":40.71148229,"lng":-74.0055188927,"starts":3657},"5137.11":{"name":"Fulton St & William St","lat":40.7096606665,"lng":-74.0066147003,"starts":5124},"5137.12":{"name":"Gold St & Frankfort St","lat":40.7106803496,"lng":-74.0035629765,"starts":1357},"5138.03":{"name":"60 Pl & Bleecker St","lat":40.7110411901,"lng":-73.9033772603,"starts":308},"5140.06":{"name":"Bushwick Ave & Stagg St","lat":40.7099837673,"lng":-73.9401692231,"starts":982},"5145.02":{"name":"Albany St & Greenwich St","lat":40.7093463457,"lng":-74.0131874846,"starts":3603},"5146.03":{"name":"Stanhope St & Fairview Ave","lat":40.710028805,"lng":-73.9111547093,"starts":820},"5148.03":{"name":"Leonard St & Maujer St","lat":40.7103713807,"lng":-73.9470492496,"starts":3277},"5156.05":{"name":"S 4 St & Rodney St","lat":40.7093817347,"lng":-73.9561367002,"starts":4010},"5159.04":{"name":"Pike St & Monroe St","lat":40.7117815652,"lng":-73.9918518644,"starts":2222},"5159.07":{"name":"South St & Pike St","lat":40.7100028488,"lng":-73.9915489968,"starts":2784},"5160.01":{"name":"Metropolitan Ave & 65 Ln","lat":40.7122876782,"lng":-73.8912486921,"starts":347},"5164.05":{"name":"Broadway & Berry St","lat":40.7104128877,"lng":-73.9652812573,"starts":4855},"5167.06":{"name":"St James Pl & Pearl St","lat":40.7112478969,"lng":-74.0001471547,"starts":1719},"5168.04":{"name":"Grove St & Fresh Pond Rd","lat":40.7103119198,"lng":-73.899566816,"starts":418},"5170.01":{"name":"Stagg St & Morgan Ave","lat":40.7106338627,"lng":-73.9338527984,"starts":1602},"5175.08":{"name":"Fulton St & Broadway","lat":40.7111201062,"lng":-74.0093926049,"starts":5512},"5176.04":{"name":"Bleecker St & Forest Ave","lat":40.7107746021,"lng":-73.9053063537,"starts":483},"5178.06":{"name":"Graham Ave & Grand St","lat":40.711885786,"lng":-73.9440678805,"starts":4427},"5181.04":{"name":"Cherry St","lat":40.7122639416,"lng":-73.9794302821,"starts":2349},"5184.08":{"name":"West St & Liberty St","lat":40.7115292927,"lng":-74.0147683688,"starts":12962},"5187.03":{"name":"Hope St & Union Ave","lat":40.7116793411,"lng":-73.9514064416,"starts":5786},"5190.07":{"name":"Madison St & Clinton St","lat":40.7127167297,"lng":-73.9877516502,"starts":2050},"5190.09":{"name":"Clinton St & Cherry St","lat":40.7114538026,"lng":-73.9867066969,"starts":3447},"5195.06":{"name":"S 4 St & Roebling St","lat":40.7107083575,"lng":-73.9596810362,"starts":7310},"5198.04":{"name":"Market St & Cherry St","lat":40.7107697023,"lng":-73.9940007899,"starts":2614},"5199.01":{"name":"65 Ln & Metropolitan Ave","lat":40.7122546323,"lng":-73.894041962,"starts":302},"5204.05":{"name":"S 4 St & Wythe Ave","lat":40.7129367407,"lng":-73.9659276945,"starts":6847},"5207.01":{"name":"Centre St & Chambers St","lat":40.7127635053,"lng":-74.0045421039,"starts":7892},"5210.01":{"name":"Powers St & Olive St","lat":40.7132521136,"lng":-73.9389761441,"starts":1730},"5216.04":{"name":"Barclay St & Church St","lat":40.7129540813,"lng":-74.010129865,"starts":2289},"5216.06":{"name":"Vesey St & Church St","lat":40.7122524568,"lng":-74.0104494203,"starts":8364},"5217.03":{"name":"Amory Ct & Metropolitan Ave","lat":40.7130994474,"lng":-73.9097616163,"starts":630},"5219.05":{"name":"Manhattan Ave & Devoe St","lat":40.7135059071,"lng":-73.9460387663,"starts":2711},"5225.02":{"name":"Flushing Ave & Woodward Ave","lat":40.7124464473,"lng":-73.9188745322,"starts":1003},"5225.09":{"name":"Woodward Ave & Starr St","lat":40.711521347,"lng":-73.9170511528,"starts":582},"5230.02":{"name":"Rutgers St & Henry St","lat":40.7132891133,"lng":-73.9900893951,"starts":2988},"5235.05":{"name":"S 3 St & Bedford Ave","lat":40.7126358883,"lng":-73.9626955211,"starts":8823},"5238.05":{"name":"St James Pl & Oliver St","lat":40.7130891423,"lng":-73.9984830696,"starts":4059},"5241.02":{"name":"Metropolitan Ave & Vandervoort Ave","lat":40.714254948,"lng":-73.9332022858,"starts":416},"5247.1":{"name":"Reade St & Broadway","lat":40.7150270341,"lng":-74.0052457682,"starts":235},"5247.10":{"name":"Reade St & Broadway","lat":40.7146082577,"lng":-74.0055587298,"starts":3160},"5248.05":{"name":"Eliot Ave & 60 Ln","lat":40.7139037336,"lng":-73.9030102543,"starts":208},"5250.05":{"name":"Bushwick Ave & Powers St","lat":40.7124816161,"lng":-73.9410463941,"starts":2895},"5257.01":{"name":"53 St & Flushing Ave","lat":40.7143586097,"lng":-73.9142022753,"starts":882},"5259.06":{"name":"Devoe St & Lorimer St","lat":40.7133941509,"lng":-73.9491156038,"starts":4019},"5262.09":{"name":"Madison St & Montgomery St","lat":40.7131461276,"lng":-73.984781875,"starts":2878},"5267.08":{"name":"Grand St & Havemeyer St","lat":40.7128751383,"lng":-73.9570515206,"starts":5627},"5267.09":{"name":"Roebling St & N 4 St","lat":40.7147263131,"lng":-73.9573904182,"starts":4759},"5270.05":{"name":"Pike St & E Broadway","lat":40.7140748569,"lng":-73.9929027672,"starts":4325},"5270.07":{"name":"Forsyth St & Canal St","lat":40.7158352939,"lng":-73.9941936589,"starts":5445},"5270.08":{"name":"Division St & Bowery","lat":40.7141924062,"lng":-73.9966340768,"starts":2481},"5270.09":{"name":"Market St & Henry St","lat":40.7131702134,"lng":-73.9944119546,"starts":4543},"5273.01":{"name":"Metropolitan Ave & Stewart Ave","lat":40.7140710755,"lng":-73.9278691084,"starts":647},"5276.04":{"name":"S 2 St & Kent Ave","lat":40.7147354657,"lng":-73.9665698586,"starts":4710},"5279.03":{"name":"Centre St & Worth St","lat":40.7149398749,"lng":-74.0023295738,"starts":4472},"5280.03":{"name":"Fresh Pond Rd & Eliot Ave","lat":40.714403466,"lng":-73.9009634036,"starts":383},"5282.02":{"name":"Devoe St & Morgan Ave","lat":40.7138034095,"lng":-73.9352100178,"starts":1415},"5288.08":{"name":"Park Pl & Church St","lat":40.7133495731,"lng":-74.0093704657,"starts":3255},"5288.09":{"name":"Warren St & W Broadway","lat":40.7147141691,"lng":-74.0090035757,"starts":4350},"5288.12":{"name":"Murray St & Greenwich St","lat":40.7148527767,"lng":-74.0110900929,"starts":5255},"5289.05":{"name":"56 St & Arnold Ave","lat":40.7149025734,"lng":-73.9088591889,"starts":221},"5291.05":{"name":"Graham Ave & Conselyea St","lat":40.7151178256,"lng":-73.9445471607,"starts":6156},"5294.04":{"name":"Henry St & Grand St","lat":40.7142480233,"lng":-73.9810897581,"starts":7117},"5297.02":{"name":"Vesey Pl & River Terrace","lat":40.7153297229,"lng":-74.0164943359,"starts":10633},"5300.05":{"name":"Metropolitan Ave & Meeker Ave","lat":40.7141389428,"lng":-73.9523621615,"starts":5395},"5300.06":{"name":"Union Ave & Jackson St","lat":40.716066562,"lng":-73.9520679444,"starts":2496},"5303.06":{"name":"Clinton St & Grand St","lat":40.7156192119,"lng":-73.9870036326,"starts":9849},"5303.08":{"name":"Canal St & Rutgers St","lat":40.7143012826,"lng":-73.9898566321,"starts":11417},"5308.04":{"name":"Metropolitan Ave & Bedford Ave","lat":40.7153337492,"lng":-73.9601982327,"starts":11706},"5311.08":{"name":"Division St & Bowery","lat":40.7141786074,"lng":-73.9966106143,"starts":1667},"5321.08":{"name":"60 Ave & Fresh Pond Rd","lat":40.7169422362,"lng":-73.9020398671,"starts":178},"5323.06":{"name":"Sharon St & Olive St","lat":40.7153796669,"lng":-73.9386465619,"starts":2062},"5326.06":{"name":"Stanton St & Mangin St","lat":40.7178201545,"lng":-73.9762704089,"starts":1657},"5329.03":{"name":"West St & Chambers St","lat":40.7176271198,"lng":-74.0131327294,"starts":18136},"5329.08":{"name":"Murray St & West St","lat":40.7150436556,"lng":-74.0123790947,"starts":4602},"5332.1":{"name":"Jackson St & Leonard St","lat":40.7163541184,"lng":-73.9483241315,"starts":145},"5332.10":{"name":"Jackson St & Leonard St","lat":40.7163871878,"lng":-73.9483310915,"starts":1170},"5335.03":{"name":"Bialystoker Pl & Delancey St","lat":40.7162917839,"lng":-73.9825914742,"starts":2429},"5335.07":{"name":"Grand St & Samuel Dickstein Plaza","lat":40.7151300756,"lng":-73.9840715239,"starts":4663},"5340.01":{"name":"N 7 St & Driggs Ave","lat":40.7169509237,"lng":-73.9563805645,"starts":8700},"5342.1":{"name":"Allen St & Hester St","lat":40.7161766693,"lng":-73.9918726659,"starts":225},"5342.10":{"name":"Allen St & Hester St","lat":40.7160161584,"lng":-73.9919118574,"starts":3631},"5343.1":{"name":"Allen St & Hester St","lat":40.7160050808,"lng":-73.9920195791,"starts":288},"5343.10":{"name":"Allen St & Hester St","lat":40.7160451681,"lng":-73.9919002968,"starts":2462},"5343.11":{"name":"Orchard St & Grand St","lat":40.7174167136,"lng":-73.9905604554,"starts":7551},"5348.02":{"name":"Wythe Ave & Metropolitan Ave","lat":40.7169421303,"lng":-73.9631955416,"starts":7463},"5351.03":{"name":"Bayard St & Baxter St","lat":40.7160459685,"lng":-73.9996719583,"starts":5313},"5351.07":{"name":"Walker St & Baxter St","lat":40.7174415663,"lng":-73.9996269993,"starts":4698},"5354.01":{"name":"Morgan Ave & Maspeth Ave","lat":40.716617877,"lng":-73.9363502037,"starts":841},"5359.1":{"name":"Hudson St & Reade St","lat":40.7162557666,"lng":-74.009113785,"starts":398},"5359.10":{"name":"Hudson St & Reade St","lat":40.7163144466,"lng":-74.0090824977,"starts":3973},"5359.11":{"name":"Leonard St & Church St","lat":40.7175348757,"lng":-74.0054811887,"starts":4061},"5359.12":{"name":"Duane St & Hudson St","lat":40.7170612418,"lng":-74.009258611,"starts":3134},"5359.13":{"name":"Church St & Worth St","lat":40.7168806362,"lng":-74.0064131039,"starts":3001},"5360.02":{"name":"60 St & 60 Rd","lat":40.7159011913,"lng":-73.9062303387,"starts":198},"5362.08":{"name":"Withers St & Kingsland Ave","lat":40.7177186323,"lng":-73.940551652,"starts":1050},"5365.02":{"name":"Columbia St & Rivington St","lat":40.7173903749,"lng":-73.9801666187,"starts":2687},"5368.03":{"name":"River Ter & Warren St","lat":40.7175509446,"lng":-74.0158633792,"starts":6450},"5369.01":{"name":"Grand Ave & 55 St","lat":40.7189277998,"lng":-73.9145217731,"starts":300},"5371.07":{"name":"Frost St & Meeker Ave","lat":40.7176447778,"lng":-73.9488619212,"starts":2872},"5374.01":{"name":"Norfolk St & Broome St","lat":40.7171944698,"lng":-73.9879901513,"starts":10095},"5379.09":{"name":"Berry St & N 8 St","lat":40.7190102048,"lng":-73.9585822139,"starts":6108},"5379.1":{"name":"N 6 St & Bedford Ave","lat":40.7174574392,"lng":-73.9585175126,"starts":1147},"5379.10":{"name":"N 6 St & Bedford Ave","lat":40.717467991,"lng":-73.9585321918,"starts":6695},"5382.06":{"name":"Grand St & Elizabeth St","lat":40.7188759496,"lng":-73.9959607227,"starts":9030},"5382.07":{"name":"Forsyth St & Grand St","lat":40.7177869432,"lng":-73.9931720114,"starts":8525},"5388.01":{"name":"Kent Ave & Grand St","lat":40.7164468699,"lng":-73.9658952271,"starts":6892},"5391.06":{"name":"Lispenard St & Broadway","lat":40.7194004043,"lng":-74.0024339649,"starts":5336},"5392.04":{"name":"63 St & 59 Dr","lat":40.7183865616,"lng":-73.9013096161,"starts":142},"5400.05":{"name":"Harrison St & Hudson St","lat":40.7187256962,"lng":-74.0089675444,"starts":2934},"5401.03":{"name":"59 St & 59 Rd","lat":40.7179514866,"lng":-73.9089158667,"starts":113},"5403.04":{"name":"Graham Ave & Withers St","lat":40.7170117517,"lng":-73.9448941423,"starts":3012},"5403.05":{"name":"Graham Ave & Herbert St","lat":40.7192957923,"lng":-73.9450222831,"starts":1612},"5406.02":{"name":"Rivington St & Ridge St","lat":40.7185164463,"lng":-73.983223097,"starts":5558},"5406.04":{"name":"Pitt St & Stanton St","lat":40.7193085667,"lng":-73.9817720171,"starts":1685},"5409.02":{"name":"Page Pl & Grand Ave","lat":40.7180469355,"lng":-73.9181548813,"starts":202},"5411.07":{"name":"Union Ave & N 12 St","lat":40.7192478432,"lng":-73.9524550003,"starts":5138},"5411.08":{"name":"Driggs Ave & N 9 St","lat":40.7182147153,"lng":-73.9551784734,"starts":4482},"5414.06":{"name":"Allen St & Rivington St","lat":40.7202436662,"lng":-73.9899182435,"starts":8427},"5414.07":{"name":"Delancey St & Eldridge St","lat":40.7194022944,"lng":-73.9914907005,"starts":3563},"5419.04":{"name":"N 5 St & Wythe Ave","lat":40.7183917721,"lng":-73.9614770035,"starts":4699},"5422.04":{"name":"Howard St & Lafayette St","lat":40.7191211721,"lng":-73.9996668805,"starts":4898},"5422.09":{"name":"Lafayette St & Grand St","lat":40.7203494895,"lng":-73.9987610797,"starts":6170},"5430.08":{"name":"Franklin St & W Broadway","lat":40.7191468594,"lng":-74.0066133273,"starts":3427},"5430.1":{"name":"6 Ave & Walker St","lat":40.7197928916,"lng":-74.0044177658,"starts":297},"5430.10":{"name":"6 Ave & Walker St","lat":40.719745052,"lng":-74.0051275623,"starts":3699},"5431.01":{"name":"60 Pl & Flushing Ave","lat":40.7199245873,"lng":-73.9061136225,"starts":139},"5433.03":{"name":"Richardson St & N Henry St","lat":40.7190990658,"lng":-73.9422634779,"starts":2173},"5433.04":{"name":"Frost St & Debevoise Ave","lat":40.7189538385,"lng":-73.9395023515,"starts":464},"5436.09":{"name":"Ave D & E 3 St","lat":40.7208246256,"lng":-73.9778920928,"starts":3626},"5436.11":{"name":"E Houston St & Columbia St","lat":40.7198005672,"lng":-73.9786804474,"starts":3114},"5440.05":{"name":"57 St & Grand Ave","lat":40.7191563133,"lng":-73.9124470157,"starts":149},"5442.05":{"name":"Bayard St & Leonard St","lat":40.7191704824,"lng":-73.9489902852,"starts":3772},"5442.09":{"name":"Manhattan Ave & Leonard St","lat":40.7208856909,"lng":-73.9484166362,"starts":1833},"5445.02":{"name":"Suffolk St & Stanton St","lat":40.7207005078,"lng":-73.9851689685,"starts":8325},"5445.07":{"name":"Stanton St & Norfolk St","lat":40.7207926288,"lng":-73.9862588725,"starts":5866},"5450.01":{"name":"N 10 St & Berry St","lat":40.7202031072,"lng":-73.9570807323,"starts":4206},"5450.04":{"name":"N 12 St & Bedford Ave","lat":40.7208201755,"lng":-73.954925551,"starts":6131},"5453.01":{"name":"Rivington St & Chrystie St","lat":40.7211722659,"lng":-73.9918863856,"starts":6163},"5453.05":{"name":"Forsyth St & Broome St","lat":40.7190367972,"lng":-73.9925854433,"starts":4533},"5453.06":{"name":"Kenmare St & Elizabeth St","lat":40.7205691614,"lng":-73.9947872784,"starts":5489},"5458.02":{"name":"N 5 St & Northside Piers","lat":40.7198344184,"lng":-73.9638183381,"starts":6668},"5470.02":{"name":"N Moore St & Hudson St","lat":40.7199845544,"lng":-74.0083339782,"starts":3367},"5470.1":{"name":"Greenwich St & Hubert St","lat":40.7211854032,"lng":-74.0098209809,"starts":413},"5470.10":{"name":"Greenwich St & Hubert St","lat":40.7212825995,"lng":-74.0099966096,"starts":3871},"5470.12":{"name":"North Moore St & Greenwich St","lat":40.7202455064,"lng":-74.010224573,"starts":8377},"5471.04":{"name":"Grand Ave & 58 Ave","lat":40.7209738379,"lng":-73.9070415984,"starts":53},"5473.03":{"name":"Engert Ave & McGuinness Blvd","lat":40.7215730831,"lng":-73.9454755685,"starts":1561},"5473.06":{"name":"Monitor St & Meeker Ave","lat":40.7212637728,"lng":-73.941865414,"starts":1467},"5476.03":{"name":"E 2 St & Ave C","lat":40.7208927393,"lng":-73.9808186694,"starts":5944},"5481.04":{"name":"Driggs Ave & Lorimer St","lat":40.7218110787,"lng":-73.9504418973,"starts":4174},"5484.09":{"name":"Allen St & Stanton St","lat":40.721999526,"lng":-73.9890752345,"starts":8561},"5489.03":{"name":"Kent Ave & N 7 St","lat":40.7204165727,"lng":-73.9615951899,"starts":6873},"5489.04":{"name":"N 11 St & Kent Ave","lat":40.7224870328,"lng":-73.9591780043,"starts":2456},"5489.06":{"name":"N 9 St & Wythe Ave","lat":40.7205660332,"lng":-73.9590657202,"starts":3032},"5492.05":{"name":"Cleveland Pl & Spring St","lat":40.7220987794,"lng":-73.9971878899,"starts":12812},"5500.02":{"name":"Grand St & Greene St","lat":40.7217733261,"lng":-74.0023330658,"starts":6290},"5500.07":{"name":"6 Ave & Canal St","lat":40.7224573036,"lng":-74.005640054,"starts":3846},"5501.06":{"name":"Fresh Pond Rd & Flushing Ave","lat":40.7215140997,"lng":-73.9029611139,"starts":155},"5503.01":{"name":"Morgan Ave & Lombardy St","lat":40.7223049098,"lng":-73.9389004603,"starts":1425},"5506.1":{"name":"Ave D & E 8 St","lat":40.723684978,"lng":-73.9757700666,"starts":218},"5506.10":{"name":"Ave D & E 8 St","lat":40.7236693252,"lng":-73.9756822992,"starts":2154},"5506.14":{"name":"E 6 St & Ave D","lat":40.7222971066,"lng":-73.9766634683,"starts":4718},"5509.02":{"name":"Washington St & Laight St","lat":40.7223618011,"lng":-74.010506972,"starts":3571},"5510.02":{"name":"57 Rd & 59 St","lat":40.7224918543,"lng":-73.9085660917,"starts":165},"5510.05":{"name":"57 Rd & 58 St","lat":40.7223650672,"lng":-73.9122492537,"starts":74},"5515.02":{"name":"E 2 St & Ave B","lat":40.7221821252,"lng":-73.9836789799,"starts":7534},"5515.08":{"name":"E 4 St & Ave B","lat":40.7234108699,"lng":-73.9827313408,"starts":5458},"5520.09":{"name":"N 15 St & Wythe Ave","lat":40.7240913717,"lng":-73.9557872087,"starts":2648},"5523.02":{"name":"Stanton St & Chrystie St","lat":40.7222848186,"lng":-73.9914163792,"starts":6012},"5532.01":{"name":"Mercer St & Spring St","lat":40.7236452603,"lng":-73.9993819274,"starts":5640},"5539.06":{"name":"Laight St & Hudson St","lat":40.7218367018,"lng":-74.0075950798,"starts":1745},"5540.06":{"name":"56 Dr & 61 St","lat":40.723941343,"lng":-73.9042197791,"starts":150},"5542.04":{"name":"Driggs Ave & N Henry St","lat":40.723281421,"lng":-73.9430303779,"starts":4213},"5545.01":{"name":"E 7 St & Ave C","lat":40.7241789617,"lng":-73.9790343412,"starts":5662},"5545.04":{"name":"E 5 St & Ave C","lat":40.7230234143,"lng":-73.9799891454,"starts":3771},"5548.01":{"name":"58 St & 56 Dr","lat":40.7241684652,"lng":-73.9124397909,"starts":161},"5550.05":{"name":"Bedford Ave & Nassau Ave","lat":40.7231499571,"lng":-73.952130188,"starts":7161},"5550.09":{"name":"Leonard St & Nassau Ave","lat":40.7239447057,"lng":-73.9498699145,"starts":3807},"5553.03":{"name":"E 3 St & 1 Ave","lat":40.7247111272,"lng":-73.9878184057,"starts":4710},"5553.1":{"name":"E 2 St & Ave A","lat":40.7231042349,"lng":-73.9857800643,"starts":351},"5553.10":{"name":"E 2 St & Ave A","lat":40.7231165438,"lng":-73.9858504545,"starts":6111},"5558.04":{"name":"Wythe Ave & N 13 St","lat":40.7227544277,"lng":-73.9570568764,"starts":3064},"5561.04":{"name":"Mott St & Prince St","lat":40.723190783,"lng":-73.9948034222,"starts":7991},"5561.06":{"name":"Lafayette St & Jersey St","lat":40.7246012383,"lng":-73.9956210985,"starts":9755},"5569.06":{"name":"W Broadway & Spring St","lat":40.7250280389,"lng":-74.0014881339,"starts":5592},"5570.04":{"name":"Grand Ave & Remsen Pl","lat":40.7235203789,"lng":-73.900067874,"starts":387},"5572.07":{"name":"Van Dam St & Meeker Ave","lat":40.7253838972,"lng":-73.9368546973,"starts":936},"5575.08":{"name":"Ave D & E 12 St","lat":40.725816114,"lng":-73.9741848771,"starts":1053},"5575.13":{"name":"Ave D & E 10 St","lat":40.7250539922,"lng":-73.9750568417,"starts":1686},"5578.02":{"name":"Watts St & Greenwich St","lat":40.7240919594,"lng":-74.0096125015,"starts":5256},"5579.02":{"name":"56 Dr & 59 St","lat":40.7239555882,"lng":-73.908643775,"starts":94},"5579.04":{"name":"55 Dr & Maurice Ave","lat":40.7261220832,"lng":-73.9092110689,"starts":407},"5581.01":{"name":"Nassau Ave & Russell St","lat":40.7255981397,"lng":-73.9442769464,"starts":4146},"5584.04":{"name":"E 6 St & Ave B","lat":40.7245939661,"lng":-73.9819020597,"starts":5172},"5584.05":{"name":"E 7 St & Ave B","lat":40.7251599068,"lng":-73.9813407864,"starts":6350},"5593.01":{"name":"E 1 St & 1 Ave","lat":40.7233838147,"lng":-73.9886488331,"starts":9120},"5593.02":{"name":"E 2 St & 2 Ave","lat":40.7251084945,"lng":-73.9906906029,"starts":4013},"5593.04":{"name":"E 4 St & 2 Ave","lat":40.7263344338,"lng":-73.9897265465,"starts":5811},"5602.06":{"name":"Greene St & Prince St","lat":40.7251634913,"lng":-73.9992031277,"starts":5099},"5610.09":{"name":"6 Ave & Broome St","lat":40.7243883983,"lng":-74.0046479979,"starts":7454},"5611.04":{"name":"61 St & Borden Ave","lat":40.7255609411,"lng":-73.9041792015,"starts":55},"5611.05":{"name":"63 St & Borden Ave","lat":40.7265325829,"lng":-73.9033000829,"starts":153},"5613.04":{"name":"Kingsland Ave & Nassau Ave","lat":40.7257492643,"lng":-73.9417323781,"starts":3328},"5616.01":{"name":"E 9 St & Ave C","lat":40.7252151894,"lng":-73.977678152,"starts":4765},"5616.08":{"name":"E 12 St & Ave C","lat":40.7272681964,"lng":-73.9768821104,"starts":3183},"5623.03":{"name":"Nassau Ave & Newell St","lat":40.7248677965,"lng":-73.9475764913,"starts":3405},"5626.06":{"name":"E 5 St & Ave A","lat":40.724806631,"lng":-73.9842082271,"starts":4479},"5626.07":{"name":"E 7 St & Ave A","lat":40.7262097551,"lng":-73.9837649144,"starts":8491},"5626.13":{"name":"St Marks Pl & 1 Ave","lat":40.7278016965,"lng":-73.9856744651,"starts":6913},"5626.15":{"name":"1 Ave & E 6 St","lat":40.7262645486,"lng":-73.9861582402,"starts":7185},"5633.04":{"name":"Banker St & Meserole Ave","lat":40.7260673839,"lng":-73.9561912707,"starts":1896},"5636.11":{"name":"Great Jones St","lat":40.7274162063,"lng":-73.9938092516,"starts":8124},"5636.13":{"name":"E 1 St & Bowery","lat":40.7248294167,"lng":-73.9920592203,"starts":6142},"5644.05":{"name":"W Broadway & W Houston St","lat":40.7263485091,"lng":-74.0004323074,"starts":3944},"5653.12":{"name":"Spring St & Hudson St","lat":40.7258717052,"lng":-74.0076501138,"starts":4797},"5656.03":{"name":"N Henry St & Norman Ave","lat":40.7277313364,"lng":-73.9439209419,"starts":1355},"5659.05":{"name":"E 10 St & Ave A","lat":40.7274078478,"lng":-73.98133279,"starts":7957},"5659.11":{"name":"E 11 St & Ave B","lat":40.7275002754,"lng":-73.9795208907,"starts":5833},"5666.04":{"name":"Meserole Ave & Manhattan Ave","lat":40.7270765825,"lng":-73.9529828373,"starts":4205},"5666.11":{"name":"Norman Ave & Leonard St","lat":40.7258312174,"lng":-73.9507947817,"starts":4100},"5669.1":{"name":"St Marks Pl & 2 Ave","lat":40.728346234,"lng":-73.9871540157,"starts":512},"5669.10":{"name":"St Marks Pl & 2 Ave","lat":40.7284517221,"lng":-73.9871366092,"starts":6419},"5669.12":{"name":"E 6 St & 2 Ave","lat":40.7273264181,"lng":-73.9883127004,"starts":4671},"5676.04":{"name":"Calyer St & West St","lat":40.7269179243,"lng":-73.9585786131,"starts":4805},"5679.05":{"name":"Mercer St & Bleecker St","lat":40.7270828345,"lng":-73.9965675109,"starts":5829},"5679.08":{"name":"Bleecker St & Crosby St","lat":40.7261923718,"lng":-73.9951109039,"starts":9202},"5687.04":{"name":"MacDougal St & Prince St","lat":40.7271392054,"lng":-74.0028746967,"starts":7758},"5687.11":{"name":"King St & Varick St","lat":40.7278688942,"lng":-74.0052254934,"starts":5171},"5688.02":{"name":"64 St & 53 Dr","lat":40.7289438858,"lng":-73.9012667106,"starts":195},"5696.03":{"name":"Pier 40 - Hudson River Park","lat":40.7277958949,"lng":-74.0112120538,"starts":10339},"5703.13":{"name":"Ave A & E 11 St","lat":40.7286036405,"lng":-73.9816670567,"starts":6696},"5709.04":{"name":"Lorimer St & Calyer St","lat":40.7279808329,"lng":-73.9541903651,"starts":2412},"5712.03":{"name":"Cooper Square & Astor Pl","lat":40.7295069523,"lng":-73.9907463354,"starts":7592},"5712.12":{"name":"E 5 St & Cooper Sq","lat":40.7277033697,"lng":-73.9909427688,"starts":4962},"5721.01":{"name":"Sullivan St & Washington Sq","lat":40.7304388124,"lng":-73.9990375161,"starts":5668},"5721.07":{"name":"Thompson St & Bleecker St","lat":40.7283793355,"lng":-73.9997034128,"starts":6628},"5721.14":{"name":"LaGuardia Pl & W 3 St","lat":40.7291999868,"lng":-73.9980433404,"starts":6994},"5730.08":{"name":"Greenwich St & W Houston St","lat":40.7288087593,"lng":-74.0085318567,"starts":7283},"5731.03":{"name":"Maurice Ave & 53 Dr","lat":40.730308733,"lng":-73.9041885945,"starts":146},"5736.09":{"name":"E 14 St & Ave B","lat":40.7293875368,"lng":-73.9776950238,"starts":5085},"5743.02":{"name":"Calyer St & Jewel St","lat":40.7298166428,"lng":-73.9485496813,"starts":1419},"5746.02":{"name":"E 10 St & 2 Ave","lat":40.7296980707,"lng":-73.9865237312,"starts":7738},"5746.14":{"name":"E 11 St & 1 Ave","lat":40.7295621223,"lng":-73.9842854717,"starts":6638},"5752.07":{"name":"Milton St & Franklin St","lat":40.7290325191,"lng":-73.9578067213,"starts":4555},"5752.09":{"name":"Greenpoint Ave & West St","lat":40.7298050665,"lng":-73.9590734536,"starts":5017},"5755.01":{"name":"Washington Pl & Broadway","lat":40.7291153827,"lng":-73.9939890936,"starts":4849},"5755.14":{"name":"University Pl & E 8 St","lat":40.7314266763,"lng":-73.9948776083,"starts":7538},"5763.03":{"name":"Carmine St & 6 Ave","lat":40.7303921335,"lng":-74.0020747258,"starts":11163},"5764.02":{"name":"65 Pl & 53 Ave","lat":40.7314059451,"lng":-73.9002710973,"starts":360},"5769.06":{"name":"Ave C & E 16 St","lat":40.7298390484,"lng":-73.9745058294,"starts":2900},"5772.05":{"name":"Morton St & Washington St","lat":40.7311089096,"lng":-74.0086811485,"starts":6620},"5779.08":{"name":"1 Ave & E 16 St","lat":40.7322293251,"lng":-73.9816477972,"starts":6943},"5779.09":{"name":"E 13 St & Ave A","lat":40.7296533458,"lng":-73.9806058035,"starts":3963},"5779.1":{"name":"E 14 St & 1 Ave","lat":40.7313943597,"lng":-73.9828686372,"starts":450},"5779.10":{"name":"E 14 St & 1 Ave","lat":40.7314324425,"lng":-73.9828352151,"starts":7083},"5779.11":{"name":"Ave A & E 14 St","lat":40.7302592977,"lng":-73.9804808336,"starts":9454},"5785.05":{"name":"Greenpoint Ave & Manhattan Ave","lat":40.7302602184,"lng":-73.9540140067,"starts":4866},"5785.1":{"name":"Kent St & McGuinness Blvd","lat":40.731243093,"lng":-73.9516029432,"starts":80},"5785.10":{"name":"Kent St & McGuinness Blvd","lat":40.7312885057,"lng":-73.9516029047,"starts":958},"5788.12":{"name":"E 12 St & 3 Ave","lat":40.7322344239,"lng":-73.9888202935,"starts":3822},"5788.13":{"name":"Lafayette St & E 8 St","lat":40.7302605669,"lng":-73.9909389407,"starts":12751},"5788.15":{"name":"4 Ave & E 12 St","lat":40.7326361755,"lng":-73.9900439674,"starts":6563},"5788.16":{"name":"E 11 St & 3 Ave","lat":40.7312243973,"lng":-73.9883865556,"starts":5268},"5794.05":{"name":"India St Pier","lat":40.731717508,"lng":-73.9611223165,"starts":3486},"5797.01":{"name":"MacDougal St & Washington Sq","lat":40.7323233266,"lng":-73.9984304384,"starts":4125},"5805.05":{"name":"Barrow St & Hudson St","lat":40.7317207296,"lng":-74.0066955482,"starts":6029},"5805.07":{"name":"7 Ave S & Bleecker St","lat":40.7320718846,"lng":-74.0035904652,"starts":8753},"5806.01":{"name":"53 Ave & 62 St","lat":40.7316745138,"lng":-73.9015779896,"starts":227},"5820.08":{"name":"E 13 St & 2 Ave","lat":40.7315327452,"lng":-73.9851842506,"starts":8302},"5826.02":{"name":"India St & Manhattan Ave","lat":40.73232071,"lng":-73.9550636076,"starts":5388},"5829.12":{"name":"E 11 St & Broadway","lat":40.7326009328,"lng":-73.9915875088,"starts":3689},"5838.09":{"name":"Washington Pl & 6 Ave","lat":40.7322232513,"lng":-74.0002059566,"starts":5040},"5845.02":{"name":"Woodhaven Blvd & Hoffman Dr","lat":40.7328897759,"lng":-73.8712244003,"starts":659},"5847.01":{"name":"Christopher St & Greenwich St","lat":40.7329340958,"lng":-74.0070109177,"starts":10627},"5847.06":{"name":"W 10 St & Washington St","lat":40.7334248444,"lng":-74.008389953,"starts":4523},"5847.08":{"name":"Washington St & Barrow St","lat":40.7319423733,"lng":-74.0086623489,"starts":3443},"5851.01":{"name":"Greenpoint Ave & Monitor St","lat":40.7322166377,"lng":-73.9438938421,"starts":485},"5854.09":{"name":"1 Ave & E 18 St","lat":40.7338879215,"lng":-73.9804822222,"starts":7970},"5854.1":{"name":"Stuyvesant Walk & 1 Ave Loop","lat":40.7323385582,"lng":-73.9789872422,"starts":64},"5854.10":{"name":"Stuyvesant Walk & 1 Ave Loop","lat":40.7323288224,"lng":-73.978925863,"starts":801},"5860.02":{"name":"Green St & McGuinness Blvd","lat":40.7339721239,"lng":-73.9520581621,"starts":857},"5863.07":{"name":"E 15 St & 3 Ave","lat":40.7342023237,"lng":-73.9869197463,"starts":6798},"5869.04":{"name":"Huron St & Franklin St","lat":40.7326663773,"lng":-73.9582757868,"starts":5120},"5872.1":{"name":"E 9 St & 5 Ave","lat":40.7327707496,"lng":-73.9957966504,"starts":335},"5872.10":{"name":"E 9 St & 5 Ave","lat":40.732762122,"lng":-73.9956759526,"starts":5050},"5878.02":{"name":"60 Ave & Junction Blvd","lat":40.7346231408,"lng":-73.8650154266,"starts":537},"5880.02":{"name":"W 4 St & 7 Ave S","lat":40.7340070232,"lng":-74.0028526525,"starts":8920},"5881.01":{"name":"Tyler Ave & Maurice Ave","lat":40.7338878742,"lng":-73.9013655955,"starts":209},"5883.06":{"name":"Van Dam St & Greenpoint Ave","lat":40.734463483,"lng":-73.9378370315,"starts":468},"5886.13":{"name":"E 20 St & FDR Dr","lat":40.7331957981,"lng":-73.975646099,"starts":6391},"5887.03":{"name":"Queens Blvd & 56 Ave","lat":40.7347740906,"lng":-73.8742987728,"starts":686},"5896.01":{"name":"E 17 St & 2 Ave","lat":40.7343357406,"lng":-73.983727321,"starts":4511},"5902.07":{"name":"Eagle St & Manhattan Ave","lat":40.7352124093,"lng":-73.9549152202,"starts":3336},"5905.12":{"name":"Broadway & E 14 St","lat":40.7345251992,"lng":-73.990747329,"starts":10019},"5905.14":{"name":"University Pl & E 14 St","lat":40.7348000029,"lng":-73.9920557623,"starts":17959},"5914.03":{"name":"W 11 St & 6 Ave","lat":40.7352728307,"lng":-73.9978895883,"starts":5672},"5914.08":{"name":"Greenwich Ave & Charles St","lat":40.7352095752,"lng":-74.0001821176,"starts":5535},"5917.02":{"name":"Bradley Ave & Greenpoint Ave","lat":40.7356115355,"lng":-73.9349248747,"starts":310},"5920.03":{"name":"94 St & 57 Ave","lat":40.7362997662,"lng":-73.8677184734,"starts":261},"5922.04":{"name":"Greenwich St & Perry St","lat":40.7348879521,"lng":-74.0069172316,"starts":5578},"5922.07":{"name":"Perry St & Bleecker St","lat":40.7353677217,"lng":-74.0046593104,"starts":7272},"5922.08":{"name":"Bank St & Hudson St","lat":40.7365052923,"lng":-74.006056322,"starts":3679},"5923.02":{"name":"51 Ave & 61 St","lat":40.7356822099,"lng":-73.9039212817,"starts":281},"5929.01":{"name":"E 23 St & 1 Ave","lat":40.7365013616,"lng":-73.9781099468,"starts":6856},"5930.02":{"name":"Queens Blvd & Broadway","lat":40.7367138921,"lng":-73.877269319,"starts":738},"5938.01":{"name":"E 19 St & 3 Ave","lat":40.7362534505,"lng":-73.9846597078,"starts":4024},"5938.11":{"name":"E 16 St & Irving Pl","lat":40.7353882129,"lng":-73.9880562586,"starts":7409},"5944.01":{"name":"Franklin St & Dupont St","lat":40.7356676669,"lng":-73.9586517296,"starts":6646},"5945.01":{"name":"60 Ave & Otis Ave","lat":40.7371493227,"lng":-73.8561896912,"starts":165},"5947.04":{"name":"W 13 St & 5 Ave","lat":40.7354334693,"lng":-73.9943265771,"starts":6065},"5947.06":{"name":"E 15 St & 5 Ave","lat":40.7365830931,"lng":-73.9929155968,"starts":184},"5953.03":{"name":"97 St & 57 Ave","lat":40.7373056375,"lng":-73.8641694606,"starts":201},"5955.12":{"name":"Perry St & Greenwich Ave","lat":40.7359256551,"lng":-74.00093021,"starts":4367},